zip_code,city,state,lat,long
00501,Holtsville,NY,40.8179,-73.0453
00601,Adjuntas,PR,18.1967,-66.7367
00602,Aguada,PR,18.3529,-67.1775
00603,Aguadilla,PR,18.4586,-67.1299
00606,Maricao,PR,18.1667,-66.9392
00610,Anasco,PR,18.2946,-67.1300
00611,Angeles,PR,18.2856,-66.9698
00612,Arecibo,PR,18.3880,-66.6653
00616,Bajadero,PR,18.4055,-66.6712
00617,Barceloneta,PR,18.4298,-66.5581
00622,Boqueron,PR,17.9929,-67.1537
00623,Cabo Rojo,PR,18.0402,-67.1466
00624,Penuelas,PR,18.0728,-66.7248
00627,Camuy,PR,18.4252,-66.8678
00631,Castaner,PR,18.2246,-66.8678
00636,Rosario,PR,18.1647,-67.0797
00637,Sabana Grande,PR,18.0776,-66.9392
00638,Ciales,PR,18.2997,-66.4986
00641,Utuado,PR,18.2797,-66.6891
00646,Dorado,PR,18.4591,-66.2724
00647,Ensenada,PR,17.9725,-66.9452
00650,Florida,PR,18.3630,-66.5581
00652,Garrochales,PR,18.4519,-66.5998
00653,Guanica,PR,17.9825,-66.8916
00656,Guayanilla,PR,18.0373,-66.7963
00659,Hatillo,PR,18.4160,-66.7963
00660,Hormigueros,PR,18.1382,-67.1120
00662,Isabela,PR,18.4561,-67.0226
00664,Jayuya,PR,18.2103,-66.5819
00667,Lajas,PR,18.0100,-67.0226
00669,Lares,PR,18.2914,-66.8678
00670,Las Marias,PR,18.2396,-66.9869
00674,Manati,PR,18.4332,-66.4986
00676,Moca,PR,18.3856,-67.0822
00677,Rincon,PR,18.3317,-67.2312
00678,Quebradillas,PR,18.4313,-66.9154
00680,Mayaguez,PR,18.2100,-67.1060
00683,San German,PR,18.0992,-67.0226
00685,San Sebastian,PR,18.3162,-66.9750
00687,Morovis,PR,18.3222,-66.4152
00688,Sabana Hoyos,PR,18.3500,-66.6296
00690,San Antonio,PR,18.5019,-67.0971
00692,Vega Alta,PR,18.4018,-66.3438
00693,Vega Baja,PR,18.4207,-66.4033
00698,Yauco,PR,18.0909,-66.8678
00703,Aguas Buenas,PR,18.2626,-66.1296
00704,Aguirre,PR,17.9802,-66.2189
00705,Aibonito,PR,18.1354,-66.2605
00707,Maunabo,PR,18.0127,-65.9155
00714,Arroyo,PR,17.9871,-66.0582
00715,Mercedita,PR,18.0071,-66.5581
00716,Ponce,PR,17.9877,-66.6236
00718,Naguabo,PR,18.2501,-65.7847
00719,Naranjito,PR,18.2782,-66.2486
00720,Orocovis,PR,18.2045,-66.4510
00721,Palmer,PR,18.3018,-66.0800
00723,Patillas,PR,18.0252,-66.0107
00725,Caguas,PR,18.2056,-66.0345
00729,Canovanas,PR,18.3419,-65.8917
00735,Ceiba,PR,18.2436,-65.6540
00736,Cayey,PR,18.0786,-66.1653
00738,Fajardo,PR,18.3100,-65.6540
00739,Cidra,PR,18.1769,-66.1534
00740,Puerto Real,PR,18.3384,-65.6338
00741,Punta Santiago,PR,18.1646,-65.7669
00742,Roosevelt Roads,PR,18.2666,-65.6482
00744,Rio Blanco,PR,18.2202,-65.7902
00745,Rio Grande,PR,18.3451,-65.8323
00751,Salinas,PR,18.0022,-66.2605
00754,San Lorenzo,PR,18.1424,-65.9750
00757,Santa Isabel,PR,17.9858,-66.3914
00765,Vieques,PR,18.1263,-65.4401
00766,Villalba,PR,18.1300,-66.4743
00767,Yabucoa,PR,18.0688,-65.9031
00769,Coamo,PR,18.0960,-66.3510
00771,Las Piedras,PR,18.1964,-65.8720
00772,Loiza,PR,18.4194,-65.9109
00773,Luquillo,PR,18.3388,-65.7201
00775,Culebra,PR,18.3137,-65.2942
00777,Juncos,PR,18.2065,-65.9017
00778,Gurabo,PR,18.2589,-65.9746
00780,Coto Laurel,PR,18.0711,-66.5629
00782,Comerio,PR,18.2250,-66.2198
00783,Corozal,PR,18.3046,-66.3305
00784,Guayama,PR,18.0180,-66.1333
00786,La Plata,PR,18.1564,-66.2336
00791,Humacao,PR,18.1380,-65.8190
00794,Barranquitas,PR,18.2008,-66.3070
00795,Juana Diaz,PR,18.0173,-66.4933
00801,St Thomas,VI,18.3436,-64.9314
00820,Christiansted,VI,17.7454,-64.7034
00830,St John,VI,18.3282,-64.7407
00840,Frederiksted,VI,17.7124,-64.8822
00850,Kingshill,VI,17.7230,-64.7830
00901,San Juan,PR,18.4654,-66.1044
00934,Fort Buchanan,PR,18.4130,-66.1198
00949,Toa Baja,PR,18.4327,-66.1991
00952,Sabana Seca,PR,18.4284,-66.1804
00953,Toa Alta,PR,18.3578,-66.2581
00956,Bayamon,PR,18.3230,-66.1730
00962,Catano,PR,18.4418,-66.1402
00965,Guaynabo,PR,18.4300,-66.1199
00976,Trujillo Alto,PR,18.3370,-65.9900
00978,Saint Just,PR,18.3703,-66.0123
00979,Carolina,PR,18.4384,-66.0118
01001,Agawam,MA,42.0658,-72.6209
01002,Amherst,MA,42.3729,-72.4509
01005,Barre,MA,42.4208,-72.1062
01007,Belchertown,MA,42.2748,-72.4019
01008,Blandford,MA,42.1870,-72.9561
01009,Bondsville,MA,42.2075,-72.3496
01010,Brimfield,MA,42.1266,-72.2046
01011,Chester,MA,42.2686,-72.9808
01012,Chesterfield,MA,42.3654,-72.8199
01013,Chicopee,MA,42.1608,-72.6034
01026,Cummington,MA,42.4410,-72.9156
01027,Easthampton,MA,42.2929,-72.7176
01028,East Longmeadow,MA,42.0617,-72.4988
01029,East Otis,MA,42.1920,-73.0453
01030,Feeding Hills,MA,42.0705,-72.6752
01031,Gilbertville,MA,42.3611,-72.2038
01032,Goshen,MA,42.4545,-72.8267
01033,Granby,MA,42.2579,-72.5057
01034,Granville,MA,42.0924,-72.9497
01035,Hadley,MA,42.3563,-72.5850
01036,Hampden,MA,42.0730,-72.4166
01037,Hardwick,MA,42.3787,-72.1922
01038,Hatfield,MA,42.3863,-72.6059
01039,Haydenville,MA,42.4112,-72.6889
01040,Holyoke,MA,42.2227,-72.6405
01050,Huntington,MA,42.2709,-72.9032
01053,Leeds,MA,42.3522,-72.7155
01054,Leverett,MA,42.4754,-72.4876
01056,Ludlow,MA,42.1920,-72.4587
01057,Monson,MA,42.0955,-72.3129
01059,North Amherst,MA,42.3738,-72.5205
01060,Northampton,MA,42.3296,-72.6251
01062,Florence,MA,42.3301,-72.6927
01066,North Hatfield,MA,42.4107,-72.6253
01068,Oakham,MA,42.3533,-72.0514
01069,Palmer,MA,42.1921,-72.3077
01070,Plainfield,MA,42.5196,-72.9252
01071,Russell,MA,42.1692,-72.8545
01072,Shutesbury,MA,42.4630,-72.4200
01073,Southampton,MA,42.2306,-72.7410
01074,South Barre,MA,42.3824,-72.0998
01075,South Hadley,MA,42.2586,-72.5759
01077,Southwick,MA,42.0499,-72.7722
01079,Thorndike,MA,42.1968,-72.3271
01080,Three Rivers,MA,42.1783,-72.3705
01081,Wales,MA,42.0618,-72.2314
01082,Ware,MA,42.2889,-72.2776
01083,Warren,MA,42.2030,-72.1974
01084,West Chesterfield,MA,42.3868,-72.8794
01085,Westfield,MA,42.1627,-72.7714
01088,West Hatfield,MA,42.3887,-72.6466
01089,West Springfield,MA,42.1257,-72.6417
01092,West Warren,MA,42.2024,-72.2217
01093,Whately,MA,42.4399,-72.6353
01094,Wheelwright,MA,42.3517,-72.1405
01095,Wilbraham,MA,42.1347,-72.4322
01096,Williamsburg,MA,42.4361,-72.7701
01097,Woronoco,MA,42.1594,-72.8751
01098,Worthington,MA,42.3902,-72.9472
01101,Springfield,MA,42.1057,-72.5981
01106,Longmeadow,MA,42.0506,-72.5659
01151,Indian Orchard,MA,42.1513,-72.5105
01201,Pittsfield,MA,42.4665,-73.2894
01220,Adams,MA,42.6271,-73.1187
01222,Ashley Falls,MA,42.0654,-73.3165
01223,Becket,MA,42.3241,-73.1309
01224,Berkshire,MA,42.5035,-73.2021
01225,Cheshire,MA,42.5582,-73.1479
01226,Dalton,MA,42.4766,-73.1467
01229,Glendale,MA,42.2836,-73.3445
01230,Great Barrington,MA,42.1712,-73.3303
01235,Hinsdale,MA,42.3959,-73.0763
01236,Housatonic,MA,42.2631,-73.3835
01237,Lanesboro,MA,42.5607,-73.2444
01238,Lee,MA,42.2880,-73.2069
01240,Lenox,MA,42.3665,-73.2711
01242,Lenox Dale,MA,42.3394,-73.2467
01243,Middlefield,MA,42.3481,-73.0027
01244,Mill River,MA,42.1373,-73.1953
01245,Monterey,MA,42.1798,-73.1969
01247,North Adams,MA,42.6956,-73.0880
01252,North Egremont,MA,42.1967,-73.4386
01253,Otis,MA,42.1955,-73.0945
01254,Richmond,MA,42.3791,-73.3659
01255,Sandisfield,MA,42.1135,-73.1200
01256,Savoy,MA,42.5896,-73.0230
01257,Sheffield,MA,42.1039,-73.3677
01258,South Egremont,MA,42.1022,-73.4641
01259,Southfield,MA,42.0792,-73.2382
01260,South Lee,MA,42.2775,-73.2778
01262,Stockbridge,MA,42.2968,-73.3259
01264,Tyringham,MA,42.2265,-73.1976
01266,West Stockbridge,MA,42.2887,-73.3778
01267,Williamstown,MA,42.6423,-73.2526
01270,Windsor,MA,42.5131,-73.0502
01301,Greenfield,MA,42.6319,-72.5974
01330,Ashfield,MA,42.5259,-72.8093
01331,Athol,MA,42.5607,-72.1839
01337,Bernardston,MA,42.6901,-72.5851
01338,Buckland,MA,42.5800,-72.8003
01339,Charlemont,MA,42.6317,-72.8781
01340,Colrain,MA,42.6753,-72.7408
01341,Conway,MA,42.5097,-72.6990
01342,Deerfield,MA,42.5400,-72.6184
01343,Drury,MA,42.6517,-72.9908
01344,Erving,MA,42.6089,-72.4246
01346,Heath,MA,42.6657,-72.8333
01347,Lake Pleasant,MA,42.5567,-72.5186
01349,Millers Falls,MA,42.5739,-72.4842
01350,Monroe Bridge,MA,42.7212,-72.9752
01351,Montague,MA,42.5482,-72.5112
01354,Gill,MA,42.6384,-72.5095
01355,New Salem,MA,42.4260,-72.3164
01360,Northfield,MA,42.6665,-72.4469
01364,Orange,MA,42.6205,-72.2944
01366,Petersham,MA,42.4459,-72.2135
01367,Rowe,MA,42.6959,-72.9349
01368,Royalston,MA,42.6705,-72.1970
01370,Shelburne Falls,MA,42.6014,-72.7391
01373,South Deerfield,MA,42.4649,-72.6172
01375,Sunderland,MA,42.4661,-72.5555
01376,Turners Falls,MA,42.5934,-72.5400
01378,Warwick,MA,42.6663,-72.3449
01379,Wendell,MA,42.5547,-72.4083
01380,Wendell Depot,MA,42.5884,-72.3960
01420,Fitchburg,MA,42.5828,-71.8066
01430,Ashburnham,MA,42.6557,-71.9220
01431,Ashby,MA,42.6736,-71.8343
01432,Ayer,MA,42.5629,-71.5688
01434,Devens,MA,42.5350,-71.6115
01436,Baldwinville,MA,42.6001,-72.0863
01438,East Templeton,MA,42.5651,-72.0316
01440,Gardner,MA,42.5900,-71.9861
01441,Westminster,MA,42.5750,-71.9988
01450,Groton,MA,42.6162,-71.5768
01451,Harvard,MA,42.4985,-71.5819
01452,Hubbardston,MA,42.4842,-72.0112
01453,Leominster,MA,42.5245,-71.7722
01460,Littleton,MA,42.5380,-71.4850
01462,Lunenburg,MA,42.5871,-71.7209
01463,Pepperell,MA,42.6655,-71.5994
01464,Shirley,MA,42.5795,-71.6445
01467,Still River,MA,42.4844,-71.6290
01468,Templeton,MA,42.5432,-72.0669
01469,Townsend,MA,42.6596,-71.7023
01472,West Groton,MA,42.6006,-71.6302
01474,West Townsend,MA,42.6697,-71.7434
01475,Winchendon,MA,42.6609,-72.0489
01477,Winchendon Springs,MA,42.69,-72.01
01501,Auburn,MA,42.1957,-71.8461
01503,Berlin,MA,42.3842,-71.6294
01504,Blackstone,MA,42.0395,-71.5307
01505,Boylston,MA,42.3540,-71.7174
01506,Brookfield,MA,42.1945,-72.1038
01507,Charlton,MA,42.1318,-71.9732
01508,Charlton City,MA,42.1476,-71.9982
01509,Charlton Depot,MA,42.1733,-71.9794
01510,Clinton,MA,42.4132,-71.6913
01515,East Brookfield,MA,42.2073,-72.0489
01516,Douglas,MA,42.0546,-71.7547
01517,East Princeton,MA,42.46,-71.89
01518,Fiskdale,MA,42.1065,-72.1140
01519,Grafton,MA,42.2030,-71.6811
01520,Holden,MA,42.3338,-71.8533
01521,Holland,MA,42.0645,-72.1684
01522,Jefferson,MA,42.3764,-71.8723
01523,Lancaster,MA,42.4721,-71.6676
01524,Leicester,MA,42.2401,-71.9188
01525,Linwood,MA,42.0973,-71.6455
01526,Manchaug,MA,42.0945,-71.7482
01527,Millbury,MA,42.1908,-71.7795
01529,Millville,MA,42.0395,-71.5773
01531,New Braintree,MA,42.3205,-72.1295
01532,Northborough,MA,42.3301,-71.6352
01534,Northbridge,MA,42.1362,-71.6427
01535,North Brookfield,MA,42.2689,-72.0829
01536,North Grafton,MA,42.2248,-71.6893
01537,North Oxford,MA,42.1629,-71.8912
01538,North Uxbridge,MA,42.0878,-71.6417
01540,Oxford,MA,42.1215,-71.8540
01541,Princeton,MA,42.4569,-71.8908
01542,Rochdale,MA,42.2013,-71.9108
01543,Rutland,MA,42.3831,-71.9616
01545,Shrewsbury,MA,42.2868,-71.7136
01550,Southbridge,MA,42.0676,-72.0440
01560,South Grafton,MA,42.1748,-71.6798
01561,South Lancaster,MA,42.4444,-71.6876
01562,Spencer,MA,42.2480,-71.9907
01564,Sterling,MA,42.4393,-71.7766
01566,Sturbridge,MA,42.1016,-72.0798
01568,Upton,MA,42.1761,-71.6045
01569,Uxbridge,MA,42.0625,-71.6437
01570,Webster,MA,42.0582,-71.8481
01571,Dudley,MA,42.0597,-71.9368
01580,Westborough,MA,42.26,-71.61
01583,West Boylston,MA,42.3591,-71.7824
01585,West Brookfield,MA,42.2276,-72.1646
01586,West Millbury,MA,42.1756,-71.8027
01588,Whitinsville,MA,42.1257,-71.6641
01590,Sutton,MA,42.1354,-71.7558
01601,Worcester,MA,42.2627,-71.8028
01611,Cherry Valley,MA,42.2352,-71.8769
01612,Paxton,MA,42.3152,-71.9345
01701,Framingham,MA,42.3232,-71.4352
01718,Village Of Nagog Woods,MA,42.5195,-71.4290
01719,Boxborough,MA,42.4914,-71.5177
01720,Acton,MA,42.4842,-71.4395
01721,Ashland,MA,42.2594,-71.4683
01730,Bedford,MA,42.4999,-71.2753
01731,Hanscom Afb,MA,42.4631,-71.2851
01740,Bolton,MA,42.4382,-71.6049
01741,Carlisle,MA,42.5321,-71.3525
01742,Concord,MA,42.4606,-71.3642
01745,Fayville,MA,42.2915,-71.5002
01746,Holliston,MA,42.1974,-71.4412
01747,Hopedale,MA,42.1270,-71.5358
01748,Hopkinton,MA,42.2266,-71.5315
01749,Hudson,MA,42.3891,-71.5388
01752,Marlborough,MA,42.3459,-71.5509
01754,Maynard,MA,42.4285,-71.4577
01756,Mendon,MA,42.1038,-71.5446
01757,Milford,MA,42.1538,-71.5258
01760,Natick,MA,42.2872,-71.3523
01770,Sherborn,MA,42.2313,-71.3746
01772,Southborough,MA,42.2965,-71.5352
01773,Lincoln,MA,42.4272,-71.3124
01775,Stow,MA,42.4299,-71.5036
01776,Sudbury,MA,42.3888,-71.4230
01778,Wayland,MA,42.3612,-71.3629
01784,Woodville,MA,42.2376,-71.5627
01801,Woburn,MA,42.4895,-71.1589
01803,Burlington,MA,42.5060,-71.2045
01810,Andover,MA,42.6496,-71.1660
01821,Billerica,MA,42.5491,-71.2559
01824,Chelmsford,MA,42.5878,-71.3518
01826,Dracut,MA,42.6926,-71.3090
01827,Dunstable,MA,42.6732,-71.5022
01830,Haverhill,MA,42.7952,-71.0556
01833,Georgetown,MA,42.7238,-70.9782
01834,Groveland,MA,42.7509,-71.0099
01840,Lawrence,MA,42.7059,-71.1598
01844,Methuen,MA,42.7319,-71.1858
01845,North Andover,MA,42.6730,-71.0880
01850,Lowell,MA,42.6556,-71.3035
01860,Merrimac,MA,42.8366,-71.0116
01862,North Billerica,MA,42.5683,-71.2923
01863,North Chelmsford,MA,42.6314,-71.3886
01864,North Reading,MA,42.5805,-71.0870
01865,Nutting Lake,MA,42.5381,-71.2689
01866,Pinehurst,MA,42.5304,-71.2278
01867,Reading,MA,42.5333,-71.1036
01876,Tewksbury,MA,42.6111,-71.2316
01879,Tyngsboro,MA,42.6588,-71.4330
01880,Wakefield,MA,42.5013,-71.0667
01885,West Boxford,MA,42.7077,-71.0658
01886,Westford,MA,42.5890,-71.4417
01887,Wilmington,MA,42.5653,-71.1747
01890,Winchester,MA,42.4499,-71.1500
01901,Lynn,MA,42.4605,-70.9461
01906,Saugus,MA,42.4675,-71.0129
01907,Swampscott,MA,42.4752,-70.9050
01908,Nahant,MA,42.4360,-70.9209
01913,Amesbury,MA,42.8532,-70.9518
01915,Beverly,MA,42.5678,-70.8581
01921,Boxford,MA,42.6793,-71.0294
01922,Byfield,MA,42.7583,-70.9171
01923,Danvers,MA,42.5768,-70.9514
01929,Essex,MA,42.6323,-70.7784
01930,Gloucester,MA,42.6310,-70.6834
01936,Hamilton,MA,42.6208,-70.8578
01937,Hathorne,MA,42.5834,-70.9859
01938,Ipswich,MA,42.6829,-70.8473
01940,Lynnfield,MA,42.5382,-71.0305
01944,Manchester,MA,42.5795,-70.7651
01945,Marblehead,MA,42.5002,-70.8649
01949,Middleton,MA,42.6026,-71.0137
01950,Newburyport,MA,42.8142,-70.8745
01951,Newbury,MA,42.7553,-70.8496
01952,Salisbury,MA,42.8503,-70.8633
01960,Peabody,MA,42.5326,-70.9737
01965,Prides Crossing,MA,42.5590,-70.8253
01966,Rockport,MA,42.6605,-70.6162
01969,Rowley,MA,42.7179,-70.8954
01970,Salem,MA,42.5147,-70.9075
01982,South Hamilton,MA,42.6268,-70.8602
01983,Topsfield,MA,42.6356,-70.9443
01984,Wenham,MA,42.6020,-70.8729
01985,West Newbury,MA,42.7915,-70.9688
02018,Accord,MA,42.1747,-70.8845
02019,Bellingham,MA,42.0765,-71.4722
02020,Brant Rock,MA,42.0863,-70.6417
02021,Canton,MA,42.1827,-71.1221
02025,Cohasset,MA,42.2328,-70.8159
02026,Dedham,MA,42.2446,-71.1812
02030,Dover,MA,42.2417,-71.2875
02031,East Mansfield,MA,42.02,-71.17
02032,East Walpole,MA,42.1541,-71.2150
02035,Foxboro,MA,42.0609,-71.2355
02038,Franklin,MA,42.0870,-71.4078
02040,Greenbush,MA,42.1792,-70.7501
02041,Green Harbor,MA,42.0775,-70.6500
02043,Hingham,MA,42.2158,-70.8792
02045,Hull,MA,42.2843,-70.8882
02047,Humarock,MA,42.1361,-70.6908
02048,Mansfield,MA,42.0170,-71.2219
02050,Marshfield,MA,42.1111,-70.7131
02051,Marshfield Hills,MA,42.1459,-70.7405
02052,Medfield,MA,42.1824,-71.3101
02053,Medway,MA,42.1529,-71.4270
02054,Millis,MA,42.1662,-71.3613
02055,Minot,MA,42.2403,-70.7626
02056,Norfolk,MA,42.1165,-71.3311
02059,North Marshfield,MA,42.1434,-70.7705
02060,North Scituate,MA,42.2187,-70.7861
02061,Norwell,MA,42.1514,-70.8214
02062,Norwood,MA,42.1819,-71.1967
02065,Ocean Bluff,MA,42.0918,-70.7061
02066,Scituate,MA,42.2075,-70.7757
02067,Sharon,MA,42.1111,-71.1858
02070,Sheldonville,MA,42.0283,-71.3976
02071,South Walpole,MA,42.1019,-71.2721
02072,Stoughton,MA,42.1186,-71.1033
02081,Walpole,MA,42.1508,-71.2590
02090,Westwood,MA,42.2212,-71.1994
02093,Wrentham,MA,42.0553,-71.3716
02108,Boston,MA,42.3573,-71.0645
02119,Roxbury,MA,42.3230,-71.0847
02120,Roxbury Crossing,MA,42.3326,-71.0965
02121,Dorchester,MA,42.3073,-71.0859
02124,Dorchester Center,MA,42.2849,-71.0698
02126,Mattapan,MA,42.2758,-71.0907
02129,Charlestown,MA,42.3817,-71.0641
02130,Jamaica Plain,MA,42.3105,-71.1174
02131,Roslindale,MA,42.2835,-71.1218
02132,West Roxbury,MA,42.2793,-71.1659
02134,Allston,MA,42.3576,-71.1289
02135,Brighton,MA,42.3488,-71.1551
02136,Hyde Park,MA,42.2529,-71.1293
02137,Readville,MA,42.3586,-71.0605
02138,Cambridge,MA,42.3801,-71.1330
02143,Somerville,MA,42.3830,-71.0956
02148,Malden,MA,42.4328,-71.0544
02149,Everett,MA,42.4060,-71.0517
02150,Chelsea,MA,42.3996,-71.0316
02151,Revere,MA,42.4190,-70.9963
02152,Winthrop,MA,42.3678,-70.9755
02153,Medford,MA,42.4036,-71.1202
02156,West Medford,MA,42.4293,-71.1285
02169,Quincy,MA,42.2429,-71.0100
02176,Melrose,MA,42.4576,-71.0542
02180,Stoneham,MA,42.4731,-71.0971
02184,Braintree,MA,42.2034,-71.0048
02186,Milton,MA,42.2396,-71.0811
02187,Milton Village,MA,42.2795,-71.0782
02188,Weymouth,MA,42.2070,-70.9538
02189,East Weymouth,MA,42.2145,-70.9334
02190,South Weymouth,MA,42.1650,-70.9502
02191,North Weymouth,MA,42.2468,-70.9435
02228,East Boston,MA,42.35,-71.06
02301,Brockton,MA,42.0785,-71.0384
02322,Avon,MA,42.1288,-71.0469
02324,Bridgewater,MA,41.9706,-70.9732
02327,Bryantville,MA,42.0425,-70.8459
02330,Carver,MA,41.8741,-70.7648
02331,Duxbury,MA,42.0414,-70.6726
02333,East Bridgewater,MA,42.0337,-70.9425
02334,Easton,MA,42.0275,-71.1279
02337,Elmwood,MA,42.0154,-70.9646
02338,Halifax,MA,41.9872,-70.8593
02339,Hanover,MA,42.1228,-70.8518
02341,Hanson,MA,42.0558,-70.8740
02343,Holbrook,MA,42.1438,-71.0032
02344,Middleboro,MA,41.8934,-70.9117
02345,Manomet,MA,41.8975,-70.5426
02347,Lakeville,MA,41.8410,-70.9561
02350,Monponsett,MA,42.0170,-70.8499
02351,Abington,MA,42.1194,-70.9594
02355,North Carver,MA,41.9272,-70.7516
02356,North Easton,MA,42.0544,-71.1211
02358,North Pembroke,MA,42.1024,-70.7739
02359,Pembroke,MA,42.0649,-70.7986
02360,Plymouth,MA,41.8734,-70.6397
02364,Kingston,MA,41.9781,-70.7461
02366,South Carver,MA,41.8538,-70.6557
02367,Plympton,MA,41.9714,-70.8109
02368,Randolph,MA,42.1703,-71.0617
02370,Rockland,MA,42.1288,-70.9124
02375,South Easton,MA,42.0256,-71.1084
02379,West Bridgewater,MA,42.0175,-71.0235
02381,White Horse Beach,MA,41.9317,-70.5600
02382,Whitman,MA,42.0812,-70.9394
02420,Lexington,MA,42.4577,-71.2168
02445,Brookline,MA,42.3221,-71.1313
02447,Brookline Village,MA,42.3336,-71.1237
02451,Waltham,MA,42.3973,-71.2594
02455,North Waltham,MA,42.3586,-71.0605
02456,New Town,MA,42.3601,-71.1308
02457,Babson Park,MA,42.2988,-71.2601
02458,Newton,MA,42.3534,-71.1836
02459,Newton Center,MA,42.3122,-71.1947
02460,Newtonville,MA,42.3523,-71.2073
02461,Newton Highlands,MA,42.3140,-71.2085
02462,Newton Lower Falls,MA,42.3312,-71.2562
02464,Newton Upper Falls,MA,42.3132,-71.2187
02465,West Newton,MA,42.3504,-71.2256
02466,Auburndale,MA,42.3451,-71.2472
02467,Chestnut Hill,MA,42.3188,-71.1570
02468,Waban,MA,42.3265,-71.2319
02471,Watertown,MA,42.3708,-71.1833
02474,Arlington,MA,42.4172,-71.1611
02475,Arlington Heights,MA,42.4288,-71.1494
02478,Belmont,MA,42.3955,-71.1821
02479,Waverley,MA,42.4202,-71.2019
02481,Wellesley Hills,MA,42.3093,-71.2724
02482,Wellesley,MA,42.2935,-71.2993
02492,Needham,MA,42.2777,-71.2449
02493,Weston,MA,42.3578,-71.2954
02494,Needham Heights,MA,42.2997,-71.2298
02495,Nonantum,MA,42.3367,-71.2094
02532,Buzzards Bay,MA,41.7272,-70.5880
02534,Cataumet,MA,41.6668,-70.6176
02535,Chilmark,MA,41.3302,-70.7615
02536,East Falmouth,MA,41.5997,-70.5623
02537,East Sandwich,MA,41.7300,-70.4367
02538,East Wareham,MA,41.7719,-70.6481
02539,Edgartown,MA,41.3850,-70.5306
02540,Falmouth,MA,41.5783,-70.6251
02543,Woods Hole,MA,41.5282,-70.6636
02552,Menemsha,MA,41.3648,-70.7515
02553,Monument Beach,MA,41.7141,-70.6147
02554,Nantucket,MA,41.3157,-70.1197
02556,North Falmouth,MA,41.6382,-70.6277
02557,Oak Bluffs,MA,41.4451,-70.5647
02558,Onset,MA,41.7472,-70.6544
02559,Pocasset,MA,41.6879,-70.6224
02561,Sagamore,MA,41.7720,-70.5366
02562,Sagamore Beach,MA,41.7922,-70.5184
02563,Sandwich,MA,41.7196,-70.4779
02564,Siasconset,MA,41.2623,-69.9668
02565,Silver Beach,MA,41.63,-70.64
02568,Vineyard Haven,MA,41.4149,-70.6308
02571,Wareham,MA,41.7666,-70.7007
02573,West Chop,MA,41.45,-70.6
02574,West Falmouth,MA,41.6059,-70.6459
02575,West Tisbury,MA,41.3961,-70.6402
02576,West Wareham,MA,41.7735,-70.7678
02601,Hyannis,MA,41.6568,-70.2938
02630,Barnstable,MA,41.6966,-70.2954
02631,Brewster,MA,41.7469,-70.0695
02632,Centerville,MA,41.6571,-70.3474
02633,Chatham,MA,41.6889,-69.9799
02635,Cotuit,MA,41.6223,-70.4361
02637,Cummaquid,MA,41.6991,-70.2777
02638,Dennis,MA,41.7343,-70.1982
02639,Dennis Port,MA,41.6707,-70.1376
02641,East Dennis,MA,41.7486,-70.1649
02642,Eastham,MA,41.8376,-69.9751
02643,East Orleans,MA,41.7966,-69.9568
02644,Forestdale,MA,41.6932,-70.5176
02645,Harwich,MA,41.7022,-70.0629
02646,Harwich Port,MA,41.6728,-70.0692
02647,Hyannis Port,MA,41.6351,-70.3073
02648,Marstons Mills,MA,41.6704,-70.4134
02649,Mashpee,MA,41.6172,-70.4925
02650,North Chatham,MA,41.7034,-69.9668
02651,North Eastham,MA,41.8477,-70.0042
02652,North Truro,MA,42.0432,-70.1036
02653,Orleans,MA,41.7487,-69.9746
02655,Osterville,MA,41.6358,-70.3911
02657,Provincetown,MA,42.0509,-70.1963
02659,South Chatham,MA,41.6839,-70.0223
02660,South Dennis,MA,41.7137,-70.1554
02661,South Harwich,MA,41.6762,-70.0397
02662,South Orleans,MA,41.7567,-69.9938
02663,South Wellfleet,MA,41.9196,-69.9971
02664,South Yarmouth,MA,41.6711,-70.1937
02666,Truro,MA,41.9981,-70.0403
02667,Wellfleet,MA,41.9339,-70.0188
02668,West Barnstable,MA,41.7081,-70.3457
02669,West Chatham,MA,41.6703,-69.9929
02670,West Dennis,MA,41.6608,-70.1714
02671,West Harwich,MA,41.6708,-70.1113
02672,West Hyannisport,MA,41.6353,-70.3192
02673,West Yarmouth,MA,41.6486,-70.2415
02675,Yarmouth Port,MA,41.7076,-70.2300
02702,Assonet,MA,41.7853,-71.0667
02703,Attleboro,MA,41.9383,-71.2942
02712,Chartley,MA,41.9488,-71.2266
02713,Cuttyhunk,MA,41.4657,-70.8129
02714,Dartmouth,MA,41.5766,-71.0106
02715,Dighton,MA,41.8169,-71.1530
02717,East Freetown,MA,41.7526,-70.9815
02718,East Taunton,MA,41.8673,-71.0157
02719,Fairhaven,MA,41.6313,-70.8671
02720,Fall River,MA,41.7316,-71.1090
02725,Somerset,MA,41.7235,-71.1756
02738,Marion,MA,41.7181,-70.7604
02739,Mattapoisett,MA,41.6648,-70.8108
02740,New Bedford,MA,41.6322,-70.9406
02743,Acushnet,MA,41.7138,-70.8994
02747,North Dartmouth,MA,41.6526,-71.0097
02748,South Dartmouth,MA,41.5610,-70.9810
02760,North Attleboro,MA,41.9656,-71.3253
02762,Plainville,MA,42.0148,-71.3338
02763,Attleboro Falls,MA,41.9726,-71.3073
02764,North Dighton,MA,41.8560,-71.1551
02766,Norton,MA,41.9559,-71.1779
02767,Raynham,MA,41.9386,-71.0585
02768,Raynham Center,MA,41.9237,-71.0526
02769,Rehoboth,MA,41.8432,-71.2446
02770,Rochester,MA,41.7527,-70.8466
02771,Seekonk,MA,41.8401,-71.3188
02777,Swansea,MA,41.7532,-71.2342
02779,Berkley,MA,41.8259,-71.0704
02780,Taunton,MA,41.9099,-71.1189
02790,Westport,MA,41.6114,-71.0818
02791,Westport Point,MA,41.5220,-71.0751
02801,Adamsville,RI,41.5544,-71.1314
02802,Albion,RI,41.9514,-71.4551
02804,Ashaway,RI,41.4351,-71.7623
02806,Barrington,RI,41.7419,-71.3192
02807,Block Island,RI,41.1892,-71.5786
02808,Bradford,RI,41.4103,-71.7422
02809,Bristol,RI,41.6785,-71.2710
02812,Carolina,RI,41.4748,-71.6586
02813,Charlestown,RI,41.3959,-71.6630
02814,Chepachet,RI,41.9053,-71.6874
02815,Clayville,RI,41.7707,-71.6655
02816,Coventry,RI,41.6933,-71.6363
02817,West Greenwich,RI,41.6292,-71.6660
02818,East Greenwich,RI,41.6438,-71.4778
02822,Exeter,RI,41.5532,-71.6527
02823,Fiskeville,RI,41.7345,-71.5488
02824,Forestdale,RI,41.9458,-71.7004
02825,Foster,RI,41.7903,-71.6948
02826,Glendale,RI,41.9762,-71.6332
02827,Greene,RI,41.6916,-71.7272
02828,Greenville,RI,41.8814,-71.5533
02829,Harmony,RI,41.8875,-71.5975
02830,Harrisville,RI,41.9724,-71.6474
02831,Hope,RI,41.7509,-71.5887
02832,Hope Valley,RI,41.5014,-71.7289
02833,Hopkinton,RI,41.4794,-71.7752
02835,Jamestown,RI,41.5111,-71.3717
02836,Kenyon,RI,41.4483,-71.6218
02837,Little Compton,RI,41.5086,-71.1645
02838,Manville,RI,41.9653,-71.4712
02839,Mapleville,RI,41.9422,-71.6351
02840,Newport,RI,41.4850,-71.3245
02842,Middletown,RI,41.5173,-71.2719
02852,North Kingstown,RI,41.5881,-71.4620
02857,North Scituate,RI,41.8234,-71.6438
02858,Oakland,RI,41.9641,-71.6534
02859,Pascoag,RI,41.9654,-71.7217
02860,Pawtucket,RI,41.8752,-71.3945
02863,Central Falls,RI,41.8908,-71.3942
02864,Cumberland,RI,41.9560,-71.4336
02865,Lincoln,RI,41.9193,-71.4430
02871,Portsmouth,RI,41.5854,-71.2574
02872,Prudence Island,RI,41.6226,-71.3347
02873,Rockville,RI,41.5094,-71.7843
02874,Saunderstown,RI,41.5186,-71.4669
02875,Shannock,RI,41.4559,-71.6388
02876,Slatersville,RI,42.0033,-71.5855
02877,Slocum,RI,41.5381,-71.5324
02878,Tiverton,RI,41.6092,-71.1745
02879,Wakefield,RI,41.4277,-71.5364
02881,Kingston,RI,41.4803,-71.5190
02882,Narragansett,RI,41.4268,-71.4662
02883,Peace Dale,RI,41.4529,-71.4990
02885,Warren,RI,41.7300,-71.2582
02886,Warwick,RI,41.7053,-71.4610
02891,Westerly,RI,41.3615,-71.8024
02892,West Kingston,RI,41.5103,-71.5906
02893,West Warwick,RI,41.6973,-71.5097
02894,Wood River Junction,RI,41.4621,-71.7017
02895,Woonsocket,RI,41.9979,-71.4989
02896,North Smithfield,RI,41.9747,-71.5451
02898,Wyoming,RI,41.5222,-71.6698
02901,Providence,RI,41.8238,-71.4133
02910,Cranston,RI,41.7761,-71.4343
02911,North Providence,RI,41.8535,-71.4725
02914,East Providence,RI,41.8114,-71.3631
02915,Riverside,RI,41.7769,-71.3503
02916,Rumford,RI,41.8430,-71.3553
02917,Smithfield,RI,41.9036,-71.5289
02919,Johnston,RI,41.8279,-71.5181
03031,Amherst,NH,42.8696,-71.6110
03032,Auburn,NH,42.9889,-71.3458
03033,Brookline,NH,42.7491,-71.6733
03034,Candia,NH,43.0709,-71.3120
03036,Chester,NH,42.9707,-71.2395
03037,Deerfield,NH,43.1479,-71.2487
03038,Derry,NH,42.8909,-71.2763
03040,East Candia,NH,43.0484,-71.2493
03041,East Derry,NH,42.8946,-71.2917
03042,Epping,NH,43.0484,-71.0800
03043,Francestown,NH,42.9957,-71.8165
03044,Fremont,NH,42.9900,-71.1297
03045,Goffstown,NH,43.0209,-71.5704
03046,Dunbarton,NH,43.1067,-71.5892
03047,Greenfield,NH,42.9419,-71.8750
03048,Greenville,NH,42.7511,-71.7616
03049,Hollis,NH,42.7529,-71.5834
03051,Hudson,NH,42.7618,-71.4126
03052,Litchfield,NH,42.8502,-71.4549
03053,Londonderry,NH,42.8731,-71.3909
03054,Merrimack,NH,42.8518,-71.5148
03055,Milford,NH,42.8195,-71.6680
03057,Mont Vernon,NH,42.8992,-71.6882
03060,Nashua,NH,42.7345,-71.4624
03070,New Boston,NH,42.9759,-71.6814
03071,New Ipswich,NH,42.7516,-71.8709
03073,North Salem,NH,42.8368,-71.2213
03076,Pelham,NH,42.7411,-71.3161
03077,Raymond,NH,43.0320,-71.1960
03079,Salem,NH,42.7950,-71.2256
03082,Lyndeborough,NH,42.9044,-71.7774
03084,Temple,NH,42.8352,-71.8625
03086,Wilton,NH,42.8297,-71.7757
03087,Windham,NH,42.8055,-71.3015
03101,Manchester,NH,42.9884,-71.4655
03106,Hooksett,NH,43.0660,-71.4372
03110,Bedford,NH,42.9392,-71.5347
03215,Waterville Valley,NH,43.9463,-71.4653
03216,Andover,NH,43.4467,-71.7961
03217,Ashland,NH,43.7249,-71.6132
03218,Barnstead,NH,43.3119,-71.2487
03220,Belmont,NH,43.4632,-71.4708
03221,Bradford,NH,43.2364,-71.9602
03222,Bristol,NH,43.6180,-71.7801
03223,Campton,NH,43.9742,-71.5807
03224,Canterbury,NH,43.3543,-71.5520
03225,Center Barnstead,NH,43.3592,-71.2351
03226,Center Harbor,NH,43.7077,-71.4944
03227,Center Sandwich,NH,43.8343,-71.4477
03229,Contoocook,NH,43.1997,-71.6915
03230,Danbury,NH,43.5322,-71.8516
03231,East Andover,NH,43.4783,-71.7646
03233,Elkins,NH,43.4407,-71.9528
03234,Epsom,NH,43.2161,-71.3413
03235,Franklin,NH,43.4470,-71.6756
03237,Gilmanton,NH,43.4318,-71.3947
03238,Glencliff,NH,43.9825,-71.8939
03240,Grafton,NH,43.5767,-71.9668
03241,Hebron,NH,43.7217,-71.8340
03242,Henniker,NH,43.1692,-71.8212
03243,Hill,NH,43.5293,-71.7556
03244,Hillsborough,NH,43.1196,-71.9296
03245,Holderness,NH,43.7443,-71.5986
03246,Laconia,NH,43.5655,-71.4815
03249,Gilford,NH,43.5609,-71.3582
03251,Lincoln,NH,44.0895,-71.5854
03252,Lochmere,NH,43.4712,-71.5308
03253,Meredith,NH,43.6177,-71.4782
03254,Moultonborough,NH,43.7054,-71.3890
03255,Newbury,NH,43.3227,-72.0065
03256,New Hampton,NH,43.6150,-71.6200
03257,New London,NH,43.4201,-71.9851
03258,Chichester,NH,43.2573,-71.4014
03259,North Sandwich,NH,43.8662,-71.4011
03260,North Sutton,NH,43.3584,-71.9198
03261,Northwood,NH,43.2205,-71.2044
03262,North Woodstock,NH,44.0235,-71.7327
03263,Pittsfield,NH,43.3064,-71.3070
03264,Plymouth,NH,43.7217,-71.6844
03266,Rumney,NH,43.8116,-71.8838
03268,Salisbury,NH,43.3807,-71.7295
03269,Sanbornton,NH,43.5374,-71.6030
03272,South Newbury,NH,43.2956,-71.9974
03273,South Sutton,NH,43.3084,-71.9165
03274,Stinson Lake,NH,43.86,-71.8
03275,Suncook,NH,43.1691,-71.4107
03276,Tilton,NH,43.4320,-71.5685
03278,Warner,NH,43.3056,-71.8734
03279,Warren,NH,43.9419,-71.8765
03280,Washington,NH,43.1839,-72.0938
03281,Weare,NH,43.0845,-71.7223
03282,Wentworth,NH,43.8671,-71.9490
03284,Springfield,NH,43.4904,-72.0235
03285,Thornton,NH,43.9517,-71.6216
03287,Wilmot,NH,43.4418,-71.9248
03289,Winnisquam,NH,43.5015,-71.5127
03290,Nottingham,NH,43.1274,-71.1206
03291,West Nottingham,NH,43.1416,-71.1297
03293,Woodstock,NH,43.9778,-71.6858
03301,Concord,NH,43.2305,-71.5480
03304,Bow,NH,43.1291,-71.5424
03307,Loudon,NH,43.3215,-71.4415
03431,Keene,NH,42.9761,-72.2765
03440,Antrim,NH,43.0601,-71.9836
03441,Ashuelot,NH,42.7970,-72.4355
03442,Bennington,NH,43.0181,-71.9090
03443,Chesterfield,NH,42.8893,-72.4519
03444,Dublin,NH,42.8931,-72.0719
03445,Sullivan,NH,43.0111,-72.2170
03446,Swanzey,NH,42.8549,-72.2895
03447,Fitzwilliam,NH,42.7639,-72.1383
03448,Gilsum,NH,43.0336,-72.2487
03449,Hancock,NH,42.9754,-71.9962
03450,Harrisville,NH,42.9485,-72.0835
03451,Hinsdale,NH,42.7923,-72.5011
03452,Jaffrey,NH,42.8316,-72.0587
03455,Marlborough,NH,42.9081,-72.1712
03456,Marlow,NH,43.1261,-72.1745
03457,Nelson,NH,43.0064,-72.1186
03458,Peterborough,NH,42.8752,-71.9397
03461,Rindge,NH,42.7531,-71.9830
03462,Spofford,NH,42.8928,-72.4033
03464,Stoddard,NH,43.0730,-72.1175
03465,Troy,NH,42.8320,-72.1892
03466,West Chesterfield,NH,42.8942,-72.5129
03467,Westmoreland,NH,42.9736,-72.4436
03468,West Peterborough,NH,42.8872,-71.9856
03469,West Swanzey,NH,42.8602,-72.3146
03470,Winchester,NH,42.7854,-72.3328
03561,Littleton,NH,44.3391,-71.8126
03570,Berlin,NH,44.4550,-71.2607
03574,Bethlehem,NH,44.2528,-71.6036
03575,Bretton Woods,NH,44.2582,-71.4419
03576,Colebrook,NH,44.8964,-71.3954
03579,Errol,NH,44.7813,-71.1819
03580,Franconia,NH,44.1761,-71.6710
03581,Gorham,NH,44.3950,-71.1316
03582,Groveton,NH,44.5888,-71.4396
03583,Jefferson,NH,44.3969,-71.4340
03584,Lancaster,NH,44.5001,-71.5447
03585,Lisbon,NH,44.2138,-71.8900
03586,Sugar Hill,NH,44.2201,-71.8018
03588,Milan,NH,44.5741,-71.1948
03589,Mount Washington,NH,44.2855,-71.2979
03590,North Stratford,NH,44.7245,-71.4782
03592,Pittsburg,NH,45.1302,-71.2806
03593,Randolph,NH,44.3732,-71.2916
03595,Twin Mountain,NH,44.2848,-71.5034
03597,West Stewartstown,NH,44.9955,-71.5318
03598,Whitefield,NH,44.3288,-71.5712
03601,Acworth,NH,43.2354,-72.2959
03602,Alstead,NH,43.1292,-72.3285
03603,Charlestown,NH,43.2480,-72.3762
03604,Drewsville,NH,43.1281,-72.3928
03605,Lempster,NH,43.2305,-72.2417
03607,South Acworth,NH,43.1895,-72.2854
03608,Walpole,NH,43.0748,-72.4063
03609,North Walpole,NH,43.1407,-72.4368
03740,Bath,NH,44.1767,-71.9894
03741,Canaan,NH,43.6737,-72.0174
03743,Claremont,NH,43.3464,-72.3299
03745,Cornish,NH,43.4720,-72.3283
03746,Cornish Flat,NH,43.4973,-72.2800
03748,Enfield,NH,43.6175,-72.1148
03749,Enfield Center,NH,43.5903,-72.1117
03750,Etna,NH,43.7132,-72.2081
03751,Georges Mills,NH,43.4431,-72.0859
03752,Goshen,NH,43.2946,-72.1129
03753,Grantham,NH,43.5072,-72.1401
03754,Guild,NH,43.3769,-72.1388
03755,Hanover,NH,43.7161,-72.1975
03756,Lebanon,NH,43.7029,-72.2895
03765,Haverhill,NH,44.0381,-72.0538
03768,Lyme,NH,43.8221,-72.1163
03769,Lyme Center,NH,43.7995,-72.1234
03770,Meriden,NH,43.5296,-72.2740
03771,Monroe,NH,44.2743,-71.9990
03773,Newport,NH,43.3749,-72.1935
03774,North Haverhill,NH,44.0872,-71.9868
03777,Orford,NH,43.8977,-72.0599
03779,Piermont,NH,43.9722,-72.0380
03780,Pike,NH,44.0344,-71.9774
03781,Plainfield,NH,43.5366,-72.2835
03782,Sunapee,NH,43.3847,-72.0876
03784,West Lebanon,NH,43.6451,-72.2933
03785,Woodsville,NH,44.0836,-71.9005
03801,Portsmouth,NH,43.0675,-70.7998
03805,Newington,NH,43.23,-70.82
03809,Alton,NH,43.4739,-71.2325
03810,Alton Bay,NH,43.5059,-71.2742
03811,Atkinson,NH,42.8393,-71.1611
03812,Bartlett,NH,44.1186,-71.2823
03813,Center Conway,NH,44.0560,-71.0538
03814,Center Ossipee,NH,43.7715,-71.1561
03815,Center Strafford,NH,43.2649,-71.1069
03816,Center Tuftonboro,NH,43.7024,-71.2572
03817,Chocorua,NH,43.8797,-71.2291
03818,Conway,NH,43.9666,-71.2363
03819,Danville,NH,42.9278,-71.1212
03820,Dover,NH,43.1870,-70.8945
03823,Madbury,NH,43.1689,-70.9309
03824,Durham,NH,43.1222,-70.9225
03825,Barrington,NH,43.2107,-71.0492
03826,East Hampstead,NH,42.8865,-71.1192
03827,East Kingston,NH,42.9114,-70.9747
03830,East Wakefield,NH,43.6411,-71.0000
03832,Eaton Center,NH,43.9094,-71.0469
03833,Exeter,NH,42.9614,-70.9880
03835,Farmington,NH,43.3622,-71.0750
03836,Freedom,NH,43.8309,-71.0865
03837,Gilmanton Iron Works,NH,43.4185,-71.3063
03838,Glen,NH,44.1011,-71.1812
03839,Rochester,NH,43.2571,-70.9838
03840,Greenland,NH,43.0326,-70.8501
03841,Hampstead,NH,42.8827,-71.1763
03842,Hampton,NH,42.9337,-70.8427
03844,Hampton Falls,NH,42.9320,-70.8746
03845,Intervale,NH,44.1759,-71.0979
03846,Jackson,NH,44.1829,-71.2034
03847,Kearsarge,NH,44.0756,-71.1182
03848,Kingston,NH,42.9104,-71.0616
03849,Madison,NH,43.9038,-71.1018
03850,Melvin Village,NH,43.6887,-71.3049
03851,Milton,NH,43.4404,-71.0236
03852,Milton Mills,NH,43.5099,-70.9764
03853,Mirror Lake,NH,43.6399,-71.2930
03854,New Castle,NH,43.0642,-70.7227
03855,New Durham,NH,43.4643,-71.1444
03856,Newfields,NH,43.0370,-70.9644
03857,Newmarket,NH,43.0689,-70.9519
03858,Newton,NH,42.8654,-71.0430
03859,Newton Junction,NH,42.8672,-71.0666
03860,North Conway,NH,44.0280,-71.0883
03861,Lee,NH,43.1265,-71.0134
03862,North Hampton,NH,42.9794,-70.8295
03864,Ossipee,NH,43.6921,-71.1132
03865,Plaistow,NH,42.8428,-71.0946
03869,Rollinsford,NH,43.2203,-70.8417
03870,Rye,NH,43.0149,-70.7603
03871,Rye Beach,NH,42.9768,-70.7664
03872,Sanbornville,NH,43.5850,-71.0382
03873,Sandown,NH,42.9309,-71.1844
03874,Seabrook,NH,42.8839,-70.8657
03875,Silver Lake,NH,43.8778,-71.1857
03878,Somersworth,NH,43.2555,-70.8830
03882,Effingham,NH,43.7372,-71.0496
03883,South Tamworth,NH,43.8090,-71.3002
03884,Strafford,NH,43.2814,-71.1452
03885,Stratham,NH,43.0146,-70.9005
03886,Tamworth,NH,43.8722,-71.2837
03887,Union,NH,43.4764,-71.0552
03890,West Ossipee,NH,43.8265,-71.2002
03894,Wolfeboro,NH,43.5927,-71.1603
03896,Wolfeboro Falls,NH,43.5919,-71.2062
03897,Wonalancet,NH,43.9006,-71.3293
03901,Berwick,ME,43.3048,-70.8421
03902,Cape Neddick,ME,43.2225,-70.6402
03903,Eliot,ME,43.1458,-70.7832
03904,Kittery,ME,43.1114,-70.7370
03905,Kittery Point,ME,43.0984,-70.6868
03906,North Berwick,ME,43.3433,-70.7839
03907,Ogunquit,ME,43.2524,-70.6146
03908,South Berwick,ME,43.2410,-70.7407
03909,York,ME,43.1646,-70.6755
03910,York Beach,ME,43.1779,-70.6077
03911,York Harbor,ME,43.1367,-70.6462
04001,Acton,ME,43.5257,-70.9164
04002,Alfred,ME,43.4963,-70.6863
04003,Bailey Island,ME,43.7413,-69.9927
04004,Bar Mills,ME,43.6133,-70.5506
04005,Biddeford,ME,43.4967,-70.4886
04006,Biddeford Pool,ME,43.4455,-70.3434
04008,Bowdoinham,ME,44.0367,-69.8592
04009,Bridgton,ME,44.0340,-70.7509
04010,Brownfield,ME,43.9595,-70.9083
04011,Brunswick,ME,43.8931,-69.9723
04013,Bustins Island,ME,43.8002,-70.0719
04014,Cape Porpoise,ME,43.3706,-70.4379
04015,Casco,ME,43.9686,-70.5115
04016,Center Lovell,ME,44.1704,-70.8669
04017,Chebeague Island,ME,43.7337,-70.1181
04019,Cliff Island,ME,43.6967,-70.1031
04020,Cornish,ME,43.7617,-70.8078
04021,Cumberland Center,ME,43.7973,-70.2665
04022,Denmark,ME,43.9812,-70.7903
04024,East Baldwin,ME,43.8324,-70.6736
04027,Lebanon,ME,43.4034,-70.9007
04028,East Parsonsfield,ME,43.7336,-70.8483
04029,Sebago,ME,43.8911,-70.6623
04030,East Waterboro,ME,43.5869,-70.7026
04032,Freeport,ME,43.8686,-70.0977
04037,Fryeburg,ME,44.0816,-70.9129
04038,Gorham,ME,43.7154,-70.4623
04039,Gray,ME,43.8876,-70.3411
04040,Harrison,ME,44.0902,-70.6628
04041,Hiram,ME,43.8665,-70.8122
04042,Hollis Center,ME,43.6311,-70.6168
04043,Kennebunk,ME,43.3965,-70.5724
04046,Kennebunkport,ME,43.4183,-70.4982
04047,Parsonsfield,ME,43.7420,-70.9136
04048,Limerick,ME,43.6891,-70.7817
04049,Limington,ME,43.7308,-70.7048
04050,Long Island,ME,43.6913,-70.1536
04051,Lovell,ME,44.1948,-70.9007
04054,Moody,ME,43.2726,-70.5989
04055,Naples,ME,43.9715,-70.6259
04056,Newfield,ME,43.6484,-70.8489
04057,North Bridgton,ME,44.0996,-70.6997
04061,North Waterboro,ME,43.6370,-70.7449
04062,Windham,ME,43.7917,-70.4056
04063,Ocean Park,ME,43.5007,-70.3971
04064,Old Orchard Beach,ME,43.5232,-70.3906
04066,Orrs Island,ME,43.7724,-69.9668
04068,Porter,ME,43.8369,-70.9361
04069,Pownal,ME,43.8945,-70.1835
04070,Scarborough,ME,43.5783,-70.3222
04071,Raymond,ME,43.9136,-70.4968
04072,Saco,ME,43.5340,-70.4620
04073,Sanford,ME,43.4054,-70.7448
04075,Sebago Lake,ME,43.85,-70.63
04076,Shapleigh,ME,43.5488,-70.8444
04077,South Casco,ME,43.8731,-70.5138
04078,South Freeport,ME,43.8208,-70.1064
04079,Harpswell,ME,43.7947,-69.9618
04082,South Windham,ME,43.7375,-70.4304
04083,Springvale,ME,43.4640,-70.8182
04084,Standish,ME,43.7719,-70.5528
04085,Steep Falls,ME,43.7637,-70.6232
04086,Topsham,ME,43.9741,-69.9582
04087,Waterboro,ME,43.5659,-70.7415
04088,Waterford,ME,44.1964,-70.7542
04090,Wells,ME,43.3225,-70.6324
04091,West Baldwin,ME,43.8335,-70.7340
04092,Westbrook,ME,43.6937,-70.3554
04093,Buxton,ME,43.6330,-70.5351
04094,West Kennebunk,ME,43.4065,-70.5804
04095,West Newfield,ME,43.6352,-70.8953
04096,Yarmouth,ME,43.7945,-70.1706
04097,North Yarmouth,ME,43.8579,-70.2341
04101,Portland,ME,43.6608,-70.2613
04105,Falmouth,ME,43.7483,-70.2734
04106,South Portland,ME,43.6263,-70.3007
04107,Cape Elizabeth,ME,43.5933,-70.2387
04108,Peaks Island,ME,43.6697,-70.1912
04110,Cumberland Foreside,ME,43.7617,-70.1989
04210,Auburn,ME,44.0862,-70.2272
04216,Andover,ME,44.7371,-70.8614
04217,Bethel,ME,44.4075,-70.8360
04219,Bryant Pond,ME,44.4109,-70.6299
04220,Buckfield,ME,44.3286,-70.3692
04221,Canton,ME,44.4345,-70.3357
04222,Durham,ME,43.9614,-70.1308
04223,Danville,ME,44.0210,-70.2756
04224,Dixfield,ME,44.5795,-70.4154
04225,Dryden,ME,44.6206,-70.2577
04226,East Andover,ME,44.6023,-70.7032
04227,East Dixfield,ME,44.5744,-70.2996
04228,East Livermore,ME,44.4144,-70.1390
04230,East Poland,ME,44.0701,-70.3286
04231,Stoneham,ME,44.2612,-70.8810
04234,East Wilton,ME,44.6175,-70.1905
04236,Greene,ME,44.1920,-70.1466
04237,Hanover,ME,44.5001,-70.7373
04238,Hebron,ME,44.2024,-70.3741
04239,Jay,ME,44.5230,-70.2186
04240,Lewiston,ME,44.0864,-70.1576
04250,Lisbon,ME,44.0222,-70.1216
04252,Lisbon Falls,ME,44.0250,-70.0589
04253,Livermore,ME,44.4107,-70.2145
04254,Livermore Falls,ME,44.4283,-70.1502
04255,Greenwood,ME,44.3175,-70.6750
04256,Mechanic Falls,ME,44.1094,-70.4052
04257,Mexico,ME,44.5726,-70.5247
04258,Minot,ME,44.1495,-70.3414
04259,Monmouth,ME,44.2245,-70.0064
04260,New Gloucester,ME,43.9655,-70.3025
04261,Newry,ME,44.5418,-70.7880
04262,North Jay,ME,44.5505,-70.2288
04263,Leeds,ME,44.2888,-70.1365
04265,North Monmouth,ME,44.2727,-70.0333
04266,North Turner,ME,44.3425,-70.2570
04267,North Waterford,ME,44.2079,-70.7158
04268,Norway,ME,44.2336,-70.6147
04270,Oxford,ME,44.1038,-70.5029
04271,Paris,ME,44.2599,-70.5024
04274,Poland,ME,44.0456,-70.3871
04275,Roxbury,ME,44.7479,-70.7051
04276,Rumford,ME,44.5367,-70.6079
04280,Sabattus,ME,44.1317,-70.0607
04281,South Paris,ME,44.2422,-70.4783
04282,Turner,ME,44.2706,-70.2498
04284,Wayne,ME,44.3370,-70.0713
04285,Weld,ME,44.7071,-70.4546
04286,West Bethel,ME,44.4015,-70.8569
04287,Bowdoin,ME,44.0576,-69.9682
04288,West Minot,ME,44.1714,-70.3642
04289,West Paris,ME,44.3230,-70.5370
04290,Peru,ME,44.4767,-70.4554
04291,West Poland,ME,44.0513,-70.4533
04292,Sumner,ME,44.3765,-70.4425
04294,Wilton,ME,44.6327,-70.2663
04330,Augusta,ME,44.3788,-69.7310
04341,Coopers Mills,ME,44.3173,-69.4337
04342,Dresden,ME,44.0766,-69.7401
04343,East Winthrop,ME,44.3226,-69.9006
04344,Farmingdale,ME,44.2600,-69.8224
04345,Gardiner,ME,44.1965,-69.8019
04346,Randolph,ME,44.2334,-69.7407
04347,Hallowell,ME,44.2885,-69.8167
04348,Jefferson,ME,44.2219,-69.4977
04349,Kents Hill,ME,44.4351,-70.0731
04350,Litchfield,ME,44.1654,-69.9377
04351,Manchester,ME,44.3297,-69.8679
04352,Mount Vernon,ME,44.4735,-69.9596
04353,Whitefield,ME,44.2007,-69.6061
04354,Palermo,ME,44.3960,-69.4243
04355,Readfield,ME,44.3894,-69.9524
04357,Richmond,ME,44.1233,-69.8281
04358,South China,ME,44.4205,-69.5314
04359,South Gardiner,ME,44.1792,-69.7604
04360,Vienna,ME,44.5367,-70.0022
04363,Windsor,ME,44.3114,-69.5785
04364,Winthrop,ME,44.3119,-69.9625
04401,Bangor,ME,44.8636,-68.8157
04406,Abbot,ME,45.2862,-69.5528
04408,Aurora,ME,44.9130,-68.3517
04410,Bradford,ME,45.0883,-68.9071
04411,Bradley,ME,44.8804,-68.5704
04412,Brewer,ME,44.7810,-68.7361
04413,Brookton,ME,45.5951,-67.6620
04414,Brownville,ME,45.3910,-69.0185
04415,Brownville Junction,ME,45.3503,-69.0529
04416,Bucksport,ME,44.6108,-68.7427
04417,Burlington,ME,45.1930,-68.4105
04418,Greenbush,ME,45.0430,-68.5181
04419,Carmel,ME,44.8004,-68.9990
04420,Castine,ME,44.3879,-68.8003
04422,Charleston,ME,45.0714,-69.0341
04424,Danforth,ME,45.5297,-67.8618
04426,Dover Foxcroft,ME,45.2386,-69.2048
04427,Corinth,ME,44.9803,-69.0106
04428,Eddington,ME,44.8075,-68.5734
04429,Holden,ME,44.7266,-68.6203
04430,East Millinocket,ME,45.6434,-68.5884
04431,East Orland,ME,44.5705,-68.6728
04434,Etna,ME,44.7847,-69.1348
04435,Exeter,ME,44.9639,-69.1461
04438,Frankfort,ME,44.5996,-68.9209
04441,Greenville,ME,45.5335,-69.4665
04442,Greenville Junction,ME,45.5303,-69.6639
04443,Guilford,ME,45.2115,-69.3980
04444,Hampden,ME,44.7306,-68.9313
04448,Howland,ME,45.2288,-68.7077
04449,Hudson,ME,44.9972,-68.8841
04450,Kenduskeag,ME,44.9169,-68.9288
04451,Kingman,ME,45.5296,-68.1822
04453,Lagrange,ME,45.2121,-68.8244
04454,Lambert Lake,ME,45.5165,-67.4818
04455,Lee,ME,45.3782,-68.2895
04456,Levant,ME,44.8895,-68.9878
04457,Lincoln,ME,45.4323,-68.4715
04459,Mattawamkeag,ME,45.5498,-68.3199
04460,Medway,ME,45.6494,-68.5790
04461,Milford,ME,44.9728,-68.5693
04462,Millinocket,ME,45.6684,-68.7695
04463,Milo,ME,45.2843,-68.8752
04464,Monson,ME,45.2996,-69.5209
04467,Olamon,ME,45.12,-68.61
04468,Old Town,ME,45.0182,-68.7318
04469,Orono,ME,44.9017,-68.6681
04471,Orient,ME,45.8875,-67.8335
04472,Orland,ME,44.5785,-68.6761
04474,Orrington,ME,44.7138,-68.7808
04475,Passadumkeag,ME,45.1849,-68.5920
04476,Penobscot,ME,44.4683,-68.6925
04478,Rockwood,ME,45.6114,-69.9183
04479,Sangerville,ME,45.1264,-69.3117
04481,Sebec,ME,45.2392,-69.1052
04485,Shirley Mills,ME,45.3646,-69.6212
04487,Springfield,ME,45.3954,-68.1030
04488,Stetson,ME,44.8759,-69.1064
04489,Stillwater,ME,44.9086,-68.6869
04490,Topsfield,ME,45.4252,-67.7681
04491,Vanceboro,ME,45.5533,-67.4754
04492,Waite,ME,45.3918,-67.5672
04493,West Enfield,ME,45.2663,-68.5522
04495,Winn,ME,45.4638,-68.3233
04496,Winterport,ME,44.6502,-68.9184
04497,Wytopitlock,ME,45.6988,-68.0462
04530,Bath,ME,43.8682,-69.8017
04535,Alna,ME,44.0871,-69.6297
04537,Boothbay,ME,43.8967,-69.6273
04538,Boothbay Harbor,ME,43.8522,-69.6187
04539,Bristol,ME,43.9545,-69.4962
04541,Chamberlain,ME,43.8922,-69.4891
04543,Damariscotta,ME,44.0348,-69.4975
04544,East Boothbay,ME,43.8339,-69.5903
04547,Friendship,ME,44.0023,-69.2958
04548,Georgetown,ME,43.8132,-69.7437
04549,Isle Of Springs,ME,43.8612,-69.6815
04551,Bremen,ME,44.0154,-69.4348
04553,Newcastle,ME,44.0491,-69.5643
04554,New Harbor,ME,43.8584,-69.5049
04555,Nobleboro,ME,44.1108,-69.4807
04556,Edgecomb,ME,43.9685,-69.6086
04558,Pemaquid,ME,43.8940,-69.5202
04562,Phippsburg,ME,43.7898,-69.8271
04563,Cushing,ME,44.0094,-69.2519
04564,Round Pond,ME,43.9271,-69.4554
04565,Sebasco Estates,ME,43.7877,-69.8439
04568,South Bristol,ME,43.8648,-69.5646
04570,Squirrel Island,ME,43.8090,-69.6306
04571,Trevett,ME,43.9024,-69.6762
04572,Waldoboro,ME,44.1085,-69.3638
04573,Walpole,ME,43.9469,-69.5583
04574,Washington,ME,44.2742,-69.3883
04575,West Boothbay Harbor,ME,43.8476,-69.6469
04576,Southport,ME,43.8187,-69.6679
04578,Wiscasset,ME,43.9702,-69.6790
04579,Woolwich,ME,43.9545,-69.7712
04605,Ellsworth,ME,44.6506,-68.4119
04606,Addison,ME,44.5704,-67.6987
04607,Gouldsboro,ME,44.5233,-68.0744
04609,Bar Harbor,ME,44.3572,-68.2868
04611,Beals,ME,44.4849,-67.5918
04612,Bernard,ME,44.2501,-68.3540
04613,Birch Harbor,ME,44.3812,-68.0329
04614,Blue Hill,ME,44.4085,-68.5871
04616,Brooklin,ME,44.3009,-68.5736
04617,Brooksville,ME,44.3661,-68.7406
04619,Calais,ME,45.1317,-67.2222
04622,Cherryfield,ME,44.7019,-67.9692
04623,Columbia Falls,ME,44.6915,-67.7119
04624,Corea,ME,44.4201,-67.9874
04625,Cranberry Isles,ME,44.2471,-68.2586
04626,Cutler,ME,44.6875,-67.2237
04627,Deer Isle,ME,44.2357,-68.6392
04628,Dennysville,ME,44.8665,-67.2808
04629,East Blue Hill,ME,44.4223,-68.5101
04630,East Machias,ME,44.7652,-67.3737
04631,Eastport,ME,44.9199,-67.0154
04634,Franklin,ME,44.6216,-68.2253
04635,Frenchboro,ME,44.1133,-68.3534
04637,Grand Lake Stream,ME,45.1795,-67.7751
04640,Hancock,ME,44.5008,-68.2412
04642,Harborside,ME,44.3436,-68.7975
04643,Harrington,ME,44.5763,-67.8180
04644,Hulls Cove,ME,44.4193,-68.2514
04645,Isle Au Haut,ME,44.0482,-68.6302
04646,Islesford,ME,44.2593,-68.2264
04648,Jonesboro,ME,44.6684,-67.5863
04649,Jonesport,ME,44.5617,-67.5651
04650,Little Deer Isle,ME,44.2899,-68.7161
04652,Lubec,ME,44.8068,-67.1148
04653,Bass Harbor,ME,44.2256,-68.3324
04654,Machias,ME,44.7951,-67.5709
04655,Machiasport,ME,44.6547,-67.4015
04657,Meddybemps,ME,45.0091,-67.3990
04658,Milbridge,ME,44.5345,-67.8689
04660,Mount Desert,ME,44.3366,-68.3721
04662,Northeast Harbor,ME,44.3008,-68.2857
04664,Sullivan,ME,44.5349,-68.2160
04666,Pembroke,ME,44.9769,-67.2338
04667,Perry,ME,44.9810,-67.1119
04668,Princeton,ME,45.1850,-67.5663
04669,Prospect Harbor,ME,44.4337,-68.0364
04671,Robbinston,ME,45.0626,-67.1723
04672,Salsbury Cove,ME,44.4328,-68.2850
04673,Sargentville,ME,44.3258,-68.7119
04674,Seal Cove,ME,44.2784,-68.3879
04675,Seal Harbor,ME,44.2995,-68.2444
04676,Sedgwick,ME,44.3502,-68.6411
04677,Sorrento,ME,44.4919,-68.1782
04679,Southwest Harbor,ME,44.2259,-68.2997
04680,Steuben,ME,44.4863,-67.9450
04681,Stonington,ME,44.1712,-68.6674
04683,Sunset,ME,44.2129,-68.7370
04684,Surry,ME,44.4665,-68.5286
04685,Swans Island,ME,44.1598,-68.4439
04686,Wesley,ME,44.7153,-67.4619
04691,Whiting,ME,44.8548,-67.0807
04693,Winter Harbor,ME,44.3787,-68.0933
04694,Baileyville,ME,45.1285,-67.4510
04730,Houlton,ME,46.1351,-67.9109
04732,Ashland,ME,46.6749,-68.5109
04733,Benedicta,ME,45.8056,-68.3944
04734,Blaine,ME,46.4882,-67.8268
04735,Bridgewater,ME,46.4286,-67.8857
04736,Caribou,ME,46.9121,-68.0489
04737,Clayton Lake,ME,46.6241,-69.5399
04738,Crouseville,ME,46.7552,-68.0968
04739,Eagle Lake,ME,47.0235,-68.6919
04740,Easton,ME,46.6430,-67.8711
04741,Estcourt Station,ME,47.3696,-69.1884
04742,Fort Fairfield,ME,46.7768,-67.8581
04743,Fort Kent,ME,47.1096,-68.6893
04744,Fort Kent Mills,ME,47.2386,-68.5845
04745,Frenchville,ME,47.2781,-68.3910
04746,Grand Isle,ME,47.2658,-68.1310
04747,Island Falls,ME,45.9496,-68.2299
04750,Limestone,ME,46.9637,-67.8598
04756,Madawaska,ME,47.3173,-68.2989
04757,Mapleton,ME,46.6558,-68.1759
04758,Mars Hill,ME,46.5163,-67.9417
04760,Monticello,ME,46.3465,-67.8678
04761,New Limerick,ME,46.1191,-67.9726
04762,New Sweden,ME,46.9699,-68.1210
04763,Oakfield,ME,46.1187,-68.1041
04764,Oxbow,ME,46.4111,-68.5684
04765,Patten,ME,46.1379,-68.5611
04766,Perham,ME,46.8447,-68.3357
04768,Portage,ME,46.7876,-68.5018
04769,Presque Isle,ME,46.6562,-67.9813
04772,Saint Agatha,ME,47.2444,-68.3183
04773,Saint David,ME,47.2779,-68.2350
04774,Saint Francis,ME,47.0919,-69.0569
04775,Sheridan,ME,46.6572,-68.4057
04776,Sherman,ME,45.8094,-68.3044
04777,Stacyville,ME,45.8564,-68.4814
04779,Sinclair,ME,47.1431,-68.2385
04780,Smyrna Mills,ME,46.1654,-68.2383
04781,Wallagrass,ME,47.1503,-68.6304
04783,Stockholm,ME,47.0630,-68.2531
04785,Van Buren,ME,47.1515,-67.9260
04786,Washburn,ME,46.7876,-68.1664
04787,Westfield,ME,46.5237,-67.9573
04841,Rockland,ME,44.1253,-69.1336
04843,Camden,ME,44.2252,-69.0903
04846,Glen Cove,ME,44.11,-69.08
04847,Hope,ME,44.2556,-69.1886
04848,Islesboro,ME,44.3120,-68.9140
04849,Lincolnville,ME,44.3219,-69.0725
04850,Lincolnville Center,ME,44.2989,-69.1047
04851,Matinicus,ME,43.8481,-68.8918
04852,Monhegan,ME,43.7643,-69.3125
04853,North Haven,ME,44.1480,-68.8758
04854,Owls Head,ME,44.0443,-69.0894
04855,Port Clyde,ME,43.9276,-69.2603
04856,Rockport,ME,44.1734,-69.1249
04858,South Thomaston,ME,44.0365,-69.1471
04859,Spruce Head,ME,44.0072,-69.1736
04860,Tenants Harbor,ME,43.9668,-69.2308
04861,Thomaston,ME,44.0950,-69.1746
04862,Union,ME,44.2658,-69.2796
04863,Vinalhaven,ME,44.0815,-68.8445
04864,Warren,ME,44.1264,-69.2410
04865,West Rockport,ME,44.1907,-69.1472
04901,Waterville,ME,44.5573,-69.5803
04910,Albion,ME,44.5206,-69.4442
04911,Anson,ME,44.7730,-69.9582
04912,Athens,ME,44.9453,-69.6473
04915,Belfast,ME,44.4693,-69.0567
04917,Belgrade,ME,44.4830,-69.8382
04918,Belgrade Lakes,ME,44.5046,-69.8548
04920,Bingham,ME,45.1420,-69.8792
04921,Brooks,ME,44.5660,-69.1642
04922,Burnham,ME,44.6949,-69.3930
04923,Cambridge,ME,45.0339,-69.4288
04924,Canaan,ME,44.7622,-69.5264
04925,Caratunk,ME,45.2547,-69.9061
04926,China Village,ME,44.4788,-69.5176
04927,Clinton,ME,44.6497,-69.5130
04928,Corinna,ME,44.9459,-69.2341
04929,Detroit,ME,44.7613,-69.3165
04930,Dexter,ME,45.0292,-69.3376
04932,Dixmont,ME,44.6949,-69.1328
04933,East Newport,ME,44.8208,-69.2232
04935,East Vassalboro,ME,44.4478,-69.6066
04936,Eustis,ME,45.4008,-70.6309
04937,Fairfield,ME,44.6675,-69.6795
04938,Farmington,ME,44.6536,-70.1149
04939,Garland,ME,45.0560,-69.1589
04940,Farmington Falls,ME,44.6205,-70.0758
04941,Freedom,ME,44.4634,-69.2714
04942,Harmony,ME,45.0679,-69.6201
04943,Hartland,ME,44.8589,-69.5278
04944,Hinckley,ME,44.6859,-69.6332
04945,Jackman,ME,45.7402,-70.2456
04947,Kingfield,ME,44.9900,-70.3505
04949,Liberty,ME,44.3687,-69.3317
04950,Madison,ME,44.8354,-69.8047
04951,Monroe,ME,44.5925,-69.0456
04952,Morrill,ME,44.4044,-69.1570
04953,Newport,ME,44.8590,-69.2244
04954,New Portland,ME,44.8797,-70.0424
04955,New Sharon,ME,44.6446,-70.0074
04956,New Vineyard,ME,44.7995,-70.1064
04957,Norridgewock,ME,44.7069,-69.8472
04958,North Anson,ME,44.9341,-69.9426
04962,North Vassalboro,ME,44.4675,-69.6077
04963,Oakland,ME,44.5649,-69.8060
04964,Oquossoc,ME,44.8744,-70.7333
04965,Palmyra,ME,44.8466,-69.3653
04966,Phillips,ME,44.8643,-70.4140
04967,Pittsfield,ME,44.7816,-69.4283
04969,Plymouth,ME,44.7717,-69.2150
04970,Rangeley,ME,44.9673,-70.6388
04971,Saint Albans,ME,44.9224,-69.3904
04972,Sandy Point,ME,44.5148,-68.8136
04973,Searsmont,ME,44.3598,-69.2003
04974,Searsport,ME,44.4966,-68.9316
04975,Shawmut,ME,44.6205,-69.5881
04976,Skowhegan,ME,44.8133,-69.6659
04978,Smithfield,ME,44.6334,-69.8065
04979,Solon,ME,44.9847,-69.8030
04981,Stockton Springs,ME,44.5257,-68.8689
04982,Stratton,ME,45.1161,-70.4358
04983,Strong,ME,44.8351,-70.2310
04984,Temple,ME,44.6976,-70.2817
04985,West Forks,ME,45.4275,-69.9752
04986,Thorndike,ME,44.5739,-69.2316
04987,Troy,ME,44.6728,-69.2555
04988,Unity,ME,44.6039,-69.3401
04989,Vassalboro,ME,44.4300,-69.6475
04992,West Farmington,ME,44.6626,-70.1559
05001,White River Junction,VT,43.6698,-72.3858
05030,Ascutney,VT,43.4242,-72.4426
05031,Barnard,VT,43.7336,-72.5918
05032,Bethel,VT,43.7941,-72.6601
05033,Bradford,VT,44.0090,-72.1682
05034,Bridgewater,VT,43.5734,-72.6425
05035,Bridgewater Corners,VT,43.6044,-72.6944
05036,Brookfield,VT,44.0263,-72.5823
05037,Brownsville,VT,43.4633,-72.4791
05038,Chelsea,VT,43.9955,-72.4600
05039,Corinth,VT,44.0281,-72.2932
05040,East Corinth,VT,44.0703,-72.2159
05041,East Randolph,VT,43.9490,-72.5390
05042,East Ryegate,VT,44.2134,-72.1059
05043,East Thetford,VT,43.8169,-72.2182
05045,Fairlee,VT,43.9174,-72.1892
05046,Groton,VT,44.2274,-72.2565
05047,Hartford,VT,43.6606,-72.3386
05048,Hartland,VT,43.5782,-72.4291
05049,Hartland Four Corners,VT,43.5466,-72.4252
05050,Mc Indoe Falls,VT,44.2588,-72.0585
05051,Newbury,VT,44.0766,-72.0896
05052,North Hartland,VT,43.5970,-72.3483
05053,North Pomfret,VT,43.7217,-72.5013
05054,North Thetford,VT,43.8568,-72.1849
05055,Norwich,VT,43.7478,-72.3019
05056,Plymouth,VT,43.5283,-72.7222
05058,Post Mills,VT,43.8841,-72.2664
05059,Quechee,VT,43.6580,-72.4332
05060,Randolph,VT,43.9752,-72.7002
05061,Randolph Center,VT,43.9330,-72.5678
05062,Reading,VT,43.5024,-72.5850
05065,Sharon,VT,43.7794,-72.4338
05067,South Pomfret,VT,43.6895,-72.5366
05068,South Royalton,VT,43.7811,-72.5395
05069,South Ryegate,VT,44.1512,-72.1639
05070,South Strafford,VT,43.8229,-72.3594
05071,South Woodstock,VT,43.5636,-72.5701
05072,Strafford,VT,43.8771,-72.3812
05073,Taftsville,VT,43.6287,-72.4614
05074,Thetford,VT,43.8332,-72.2236
05075,Thetford Center,VT,43.8503,-72.2664
05076,Topsham,VT,44.1313,-72.2412
05077,Tunbridge,VT,43.9049,-72.4767
05079,Vershire,VT,43.9556,-72.3299
05081,Wells River,VT,44.1386,-72.0879
05083,West Fairlee,VT,43.9291,-72.2694
05084,West Hartford,VT,43.7160,-72.4538
05085,West Newbury,VT,44.0710,-72.1477
05086,West Topsham,VT,44.1275,-72.3080
05088,Wilder,VT,43.6780,-72.3082
05089,Windsor,VT,43.4837,-72.4566
05091,Woodstock,VT,43.6515,-72.5696
05101,Bellows Falls,VT,43.1706,-72.4985
05141,Cambridgeport,VT,43.1536,-72.5733
05142,Cavendish,VT,43.4005,-72.5836
05143,Chester,VT,43.2260,-72.6460
05144,Chester Depot,VT,43.28,-72.63
05146,Grafton,VT,43.1700,-72.6201
05148,Londonderry,VT,43.2483,-72.8535
05149,Ludlow,VT,43.3989,-72.7097
05150,North Springfield,VT,43.3387,-72.5244
05151,Perkinsville,VT,43.3934,-72.4801
05152,Peru,VT,43.2208,-72.8960
05153,Proctorsville,VT,43.4167,-72.6266
05154,Saxtons River,VT,43.1435,-72.5091
05155,South Londonderry,VT,43.1833,-72.8034
05156,Springfield,VT,43.3168,-72.4700
05158,Westminster,VT,43.0978,-72.4770
05159,Westminster Station,VT,43.0873,-72.4468
05161,Weston,VT,43.3096,-72.8115
05201,Bennington,VT,42.9097,-73.1406
05250,Arlington,VT,43.1230,-73.1755
05251,Dorset,VT,43.2595,-73.0600
05252,East Arlington,VT,43.0709,-73.0732
05253,East Dorset,VT,43.2572,-73.0086
05254,Manchester,VT,43.1625,-73.0700
05255,Manchester Center,VT,43.1697,-73.0661
05257,North Bennington,VT,42.9644,-73.2428
05260,North Pownal,VT,42.8135,-73.2655
05261,Pownal,VT,42.7789,-73.2146
05262,Shaftsbury,VT,42.9798,-73.2010
05301,Brattleboro,VT,42.8598,-72.6813
05340,Bondville,VT,43.1626,-72.9322
05341,East Dover,VT,42.9549,-72.7806
05342,Jacksonville,VT,42.7812,-72.7901
05343,Jamaica,VT,43.1022,-72.8134
05344,Marlboro,VT,42.8463,-72.7504
05345,Newfane,VT,43.0089,-72.6643
05346,Putney,VT,43.0225,-72.5338
05350,Readsboro,VT,42.7997,-72.9753
05351,South Newfane,VT,42.9408,-72.7358
05352,Stamford,VT,42.7896,-73.0777
05353,Townshend,VT,43.0693,-72.6926
05354,Vernon,VT,42.7756,-72.5121
05355,Wardsboro,VT,43.0215,-72.8132
05356,West Dover,VT,42.9734,-72.8970
05357,West Dummerston,VT,42.9264,-72.6159
05358,West Halifax,VT,42.7745,-72.7437
05359,West Townshend,VT,43.1461,-72.7192
05360,West Wardsboro,VT,43.0545,-72.9270
05361,Whitingham,VT,42.7831,-72.8731
05362,Williamsville,VT,42.9410,-72.6770
05363,Wilmington,VT,42.8726,-72.8886
05401,Burlington,VT,44.4841,-73.2479
05403,South Burlington,VT,44.4545,-73.1850
05404,Winooski,VT,44.4949,-73.1836
05439,Colchester,VT,44.5437,-73.1485
05440,Alburgh,VT,44.9285,-73.2733
05441,Bakersfield,VT,44.7829,-72.7516
05442,Belvidere Center,VT,44.7661,-72.6693
05443,Bristol,VT,44.1569,-73.0308
05444,Cambridge,VT,44.6482,-72.9070
05445,Charlotte,VT,44.3111,-73.2362
05447,East Berkshire,VT,44.9416,-72.7025
05448,East Fairfield,VT,44.7614,-72.8820
05450,Enosburg Falls,VT,44.8980,-72.7948
05451,Essex,VT,44.5215,-73.0608
05452,Essex Junction,VT,44.5108,-73.0528
05454,Fairfax,VT,44.7163,-73.0172
05455,Fairfield,VT,44.8092,-72.9700
05456,Ferrisburgh,VT,44.2129,-73.2670
05457,Franklin,VT,44.9586,-72.9124
05458,Grand Isle,VT,44.7231,-73.2999
05459,Highgate Center,VT,44.9633,-73.0096
05460,Highgate Springs,VT,44.9766,-73.1054
05461,Hinesburg,VT,44.3156,-73.0909
05462,Huntington,VT,44.2917,-72.9610
05463,Isle La Motte,VT,44.8904,-73.3012
05464,Jeffersonville,VT,44.6410,-72.8135
05465,Jericho,VT,44.4674,-72.9178
05466,Jonesville,VT,44.3836,-72.9382
05468,Milton,VT,44.6637,-73.1475
05469,Monkton,VT,44.2388,-73.1483
05470,Montgomery,VT,44.9025,-72.6386
05471,Montgomery Center,VT,44.8541,-72.5879
05472,New Haven,VT,44.1415,-73.1640
05473,North Ferrisburgh,VT,44.2445,-73.2036
05474,North Hero,VT,44.8388,-73.2752
05476,Richford,VT,44.9552,-72.6509
05477,Richmond,VT,44.3882,-72.9506
05478,Saint Albans,VT,44.8183,-73.1267
05481,Saint Albans Bay,VT,44.8073,-73.1398
05482,Shelburne,VT,44.3949,-73.2304
05483,Sheldon,VT,44.8857,-72.9698
05485,Sheldon Springs,VT,44.9056,-72.9810
05486,South Hero,VT,44.6257,-73.3093
05487,Starksboro,VT,44.2360,-73.0031
05488,Swanton,VT,44.9021,-73.1340
05489,Underhill,VT,44.5496,-72.8914
05490,Underhill Center,VT,44.5077,-72.9000
05491,Vergennes,VT,44.1256,-73.3058
05492,Waterville,VT,44.7197,-72.7664
05494,Westford,VT,44.6034,-73.0273
05495,Williston,VT,44.4244,-73.0871
05601,Montpelier,VT,44.2601,-72.5759
05640,Adamant,VT,44.3517,-72.4982
05641,Barre,VT,44.1844,-72.4476
05647,Cabot,VT,44.4070,-72.2899
05648,Calais,VT,44.3787,-72.4973
05649,East Barre,VT,44.1478,-72.3949
05650,East Calais,VT,44.3905,-72.4336
05651,East Montpelier,VT,44.2815,-72.4961
05652,Eden,VT,44.7343,-72.6334
05653,Eden Mills,VT,44.7028,-72.4902
05654,Graniteville,VT,44.1473,-72.4790
05655,Hyde Park,VT,44.6289,-72.5642
05656,Johnson,VT,44.6464,-72.6804
05657,Lake Elmore,VT,44.5414,-72.5291
05658,Marshfield,VT,44.3603,-72.3530
05660,Moretown,VT,44.2526,-72.7616
05661,Morrisville,VT,44.5412,-72.6373
05662,Moscow,VT,44.4415,-72.7159
05663,Northfield,VT,44.1379,-72.6851
05664,Northfield Falls,VT,44.1700,-72.6499
05665,North Hyde Park,VT,44.6706,-72.5988
05666,North Montpelier,VT,44.2769,-72.4681
05667,Plainfield,VT,44.2913,-72.4047
05669,Roxbury,VT,44.0696,-72.7450
05670,South Barre,VT,44.1679,-72.5002
05671,Waterbury,VT,44.3379,-72.7564
05672,Stowe,VT,44.4808,-72.7177
05673,Waitsfield,VT,44.2008,-72.8481
05674,Warren,VT,44.1085,-72.8525
05675,Washington,VT,44.0693,-72.4203
05677,Waterbury Center,VT,44.3921,-72.7058
05678,Websterville,VT,44.1596,-72.4695
05679,Williamstown,VT,44.1022,-72.5483
05680,Wolcott,VT,44.5355,-72.4822
05681,Woodbury,VT,44.4498,-72.4123
05682,Worcester,VT,44.3977,-72.5726
05701,Rutland,VT,43.6390,-72.9229
05730,Belmont,VT,43.4211,-72.8207
05731,Benson,VT,43.7066,-73.3118
05732,Bomoseen,VT,43.6356,-73.2040
05733,Brandon,VT,43.8405,-73.0923
05734,Bridport,VT,43.9449,-73.3340
05735,Castleton,VT,43.6539,-73.1656
05736,Center Rutland,VT,43.6193,-73.0187
05737,Chittenden,VT,43.7103,-72.9253
05738,Cuttingsville,VT,43.5489,-72.8487
05739,Danby,VT,43.3522,-72.9926
05740,East Middlebury,VT,43.9734,-73.1064
05741,East Poultney,VT,43.5266,-73.2052
05742,East Wallingford,VT,43.4262,-72.8886
05743,Fair Haven,VT,43.6517,-73.3066
05744,Florence,VT,43.6883,-73.0762
05745,Forest Dale,VT,43.8284,-73.0546
05746,Gaysville,VT,43.7106,-72.7547
05747,Granville,VT,44.0049,-72.8293
05748,Hancock,VT,43.9176,-72.9084
05750,Hydeville,VT,43.6179,-73.2342
05751,Killington,VT,43.6555,-72.7853
05753,Middlebury,VT,43.9990,-73.1761
05757,Middletown Springs,VT,43.4841,-73.1231
05758,Mount Holly,VT,43.4216,-72.7984
05759,North Clarendon,VT,43.5370,-72.9525
05760,Orwell,VT,43.7878,-73.2989
05761,Pawlet,VT,43.3585,-73.1487
05762,Pittsfield,VT,43.7759,-72.8903
05763,Pittsford,VT,43.7423,-72.9980
05764,Poultney,VT,43.5252,-73.1822
05765,Proctor,VT,43.6496,-73.0327
05766,Ripton,VT,43.9841,-72.9856
05767,Rochester,VT,43.8673,-72.8485
05768,Rupert,VT,43.2576,-73.2255
05769,Salisbury,VT,43.9176,-73.1150
05770,Shoreham,VT,43.8749,-73.3218
05772,Stockbridge,VT,43.7736,-72.7402
05773,Wallingford,VT,43.4455,-73.0081
05774,Wells,VT,43.4472,-73.1818
05775,West Pawlet,VT,43.3611,-73.2181
05776,West Rupert,VT,43.2656,-73.1885
05777,West Rutland,VT,43.5714,-73.0492
05778,Whiting,VT,43.8802,-73.2038
05819,Saint Johnsbury,VT,44.4231,-71.9689
05820,Albany,VT,44.7491,-72.3580
05821,Barnet,VT,44.3163,-72.0828
05822,Barton,VT,44.7450,-72.1472
05823,Beebe Plain,VT,45.0053,-72.1413
05824,Concord,VT,44.4381,-71.8513
05825,Coventry,VT,44.8569,-72.2355
05826,Craftsbury,VT,44.6541,-72.3898
05827,Craftsbury Common,VT,44.6824,-72.3586
05828,Danville,VT,44.4533,-72.1229
05829,Derby,VT,44.9547,-72.0826
05830,Derby Line,VT,44.9702,-72.0214
05832,East Burke,VT,44.5943,-71.9009
05833,East Charleston,VT,44.8395,-71.9548
05836,East Hardwick,VT,44.5224,-72.2477
05837,East Haven,VT,44.6665,-71.8289
05838,East Saint Johnsbury,VT,44.4387,-71.9463
05839,Glover,VT,44.6778,-72.2217
05840,Granby,VT,44.6025,-71.7203
05841,Greensboro,VT,44.6040,-72.2891
05842,Greensboro Bend,VT,44.5655,-72.2183
05843,Hardwick,VT,44.5241,-72.3263
05845,Irasburg,VT,44.8006,-72.3001
05846,Island Pond,VT,44.7798,-71.8452
05847,Lowell,VT,44.7867,-72.4527
05848,Lower Waterford,VT,44.3547,-71.9077
05849,Lyndon,VT,44.5145,-72.0116
05850,Lyndon Center,VT,44.5439,-72.0184
05851,Lyndonville,VT,44.5463,-72.0502
05853,Morgan,VT,44.8843,-71.9844
05855,Newport,VT,44.9341,-72.1937
05857,Newport Center,VT,44.9230,-72.2975
05858,North Concord,VT,44.5555,-71.7704
05859,North Troy,VT,44.9344,-72.4422
05860,Orleans,VT,44.7985,-72.1002
05861,Passumpsic,VT,44.3801,-72.0925
05862,Peacham,VT,44.3267,-72.2263
05863,Saint Johnsbury Center,VT,44.4570,-72.0073
05866,Sheffield,VT,44.6371,-72.1343
05867,Sutton,VT,44.6643,-72.0420
05868,Troy,VT,44.8534,-72.3647
05871,West Burke,VT,44.6759,-71.9388
05872,West Charleston,VT,44.8635,-72.0458
05873,West Danville,VT,44.4164,-72.2042
05874,Westfield,VT,44.8808,-72.4524
05875,West Glover,VT,44.7046,-72.2718
05901,Averill,VT,44.9437,-71.6827
05902,Beecher Falls,VT,45.0047,-71.5102
05903,Canaan,VT,44.9600,-71.5975
05904,Gilman,VT,44.4128,-71.7878
05905,Guildhall,VT,44.7191,-71.6187
05906,Lunenburg,VT,44.4700,-71.7012
05907,Norton,VT,44.9321,-71.8114
06001,Avon,CT,41.7916,-72.8545
06002,Bloomfield,CT,41.8530,-72.7360
06006,Windsor,CT,41.8525,-72.6443
06010,Bristol,CT,41.6814,-72.9405
06013,Burlington,CT,41.7613,-72.9572
06016,Broad Brook,CT,41.9077,-72.5517
06018,Canaan,CT,42.0245,-73.2963
06019,Canton,CT,41.8631,-72.9134
06020,Canton Center,CT,41.8743,-72.8993
06021,Colebrook,CT,42.0151,-73.1057
06022,Collinsville,CT,41.8158,-72.9418
06023,East Berlin,CT,41.6159,-72.7204
06024,East Canaan,CT,42.0122,-73.2850
06025,East Glastonbury,CT,41.6972,-72.5347
06026,East Granby,CT,41.9393,-72.7361
06027,East Hartland,CT,42.0043,-72.9149
06028,East Windsor Hill,CT,41.8478,-72.5961
06029,Ellington,CT,41.9070,-72.4228
06030,Farmington,CT,41.7197,-72.8326
06031,Falls Village,CT,41.9470,-73.3088
06033,Glastonbury,CT,41.7000,-72.5504
06035,Granby,CT,41.9601,-72.7993
06037,Berlin,CT,41.6034,-72.7761
06039,Lakeville,CT,41.9507,-73.4288
06040,Manchester,CT,41.7622,-72.5227
06043,Bolton,CT,41.7664,-72.4389
06050,New Britain,CT,41.6612,-72.7801
06057,New Hartford,CT,41.8467,-73.0075
06058,Norfolk,CT,41.9573,-73.2010
06059,North Canton,CT,41.9601,-72.9435
06060,North Granby,CT,41.9968,-72.8435
06061,Pine Meadow,CT,41.8757,-72.9667
06062,Plainville,CT,41.6738,-72.8542
06063,Barkhamsted,CT,41.9266,-72.9710
06064,Poquonock,CT,41.9048,-72.6795
06065,Riverton,CT,41.9762,-73.0073
06066,Vernon Rockville,CT,41.8365,-72.4633
06067,Rocky Hill,CT,41.6564,-72.6699
06068,Salisbury,CT,42.0082,-73.4159
06069,Sharon,CT,41.8556,-73.4342
06070,Simsbury,CT,41.8684,-72.8172
06071,Somers,CT,41.9908,-72.4365
06072,Somersville,CT,41.9828,-72.4884
06073,South Glastonbury,CT,41.6456,-72.5664
06074,South Windsor,CT,41.8340,-72.5717
06075,Stafford,CT,41.9848,-72.2896
06076,Stafford Springs,CT,41.9865,-72.2535
06077,Staffordville,CT,41.9938,-72.2594
06078,Suffield,CT,41.9895,-72.6540
06079,Taconic,CT,41.9834,-73.4219
06081,Tariffville,CT,41.9069,-72.7673
06082,Enfield,CT,41.9844,-72.5581
06084,Tolland,CT,41.8839,-72.3630
06085,Unionville,CT,41.7469,-72.8870
06088,East Windsor,CT,41.9041,-72.5920
06089,Weatogue,CT,41.8387,-72.8239
06090,West Granby,CT,41.9574,-72.8653
06091,West Hartland,CT,42.0132,-72.9781
06092,West Simsbury,CT,41.8689,-72.8497
06093,West Suffield,CT,41.9949,-72.7283
06094,Winchester Center,CT,41.9019,-73.1360
06096,Windsor Locks,CT,41.9233,-72.6549
06098,Winsted,CT,41.9588,-73.0945
06101,Hartford,CT,41.7826,-72.6613
06107,West Hartford,CT,41.7531,-72.7587
06108,East Hartford,CT,41.7775,-72.6219
06109,Wethersfield,CT,41.6978,-72.6578
06111,Newington,CT,41.6859,-72.7315
06226,Willimantic,CT,41.7032,-72.2097
06230,Abington,CT,41.8608,-72.0072
06231,Amston,CT,41.6288,-72.3731
06232,Andover,CT,41.7319,-72.3739
06233,Ballouville,CT,41.8767,-71.8618
06234,Brooklyn,CT,41.7855,-71.9545
06235,Chaplin,CT,41.7894,-72.1279
06237,Columbia,CT,41.6910,-72.2978
06238,Coventry,CT,41.7771,-72.3353
06239,Danielson,CT,41.7848,-71.8546
06241,Dayville,CT,41.8533,-71.8643
06242,Eastford,CT,41.8930,-72.0985
06243,East Killingly,CT,41.8433,-71.8066
06244,East Woodstock,CT,41.9874,-71.9754
06245,Fabyan,CT,42.0137,-71.9406
06246,Grosvenor Dale,CT,41.9685,-71.8953
06247,Hampton,CT,41.7651,-72.0679
06248,Hebron,CT,41.6879,-72.4021
06249,Lebanon,CT,41.6266,-72.2458
06250,Mansfield Center,CT,41.7816,-72.2068
06251,Mansfield Depot,CT,41.8014,-72.3066
06254,North Franklin,CT,41.6139,-72.1490
06255,North Grosvenordale,CT,41.9786,-71.9020
06256,North Windham,CT,41.7331,-72.1545
06258,Pomfret,CT,41.8975,-71.9631
06259,Pomfret Center,CT,41.8580,-71.9951
06260,Putnam,CT,41.9010,-71.8658
06262,Quinebaug,CT,42.0199,-71.9460
06263,Rogers,CT,41.8404,-71.9064
06264,Scotland,CT,41.6954,-72.1017
06265,South Willington,CT,41.8564,-72.2998
06266,South Windham,CT,41.6686,-72.1695
06267,South Woodstock,CT,41.9395,-71.9589
06268,Storrs Mansfield,CT,41.7912,-72.2521
06277,Thompson,CT,41.9757,-71.8610
06278,Ashford,CT,41.8955,-72.1587
06279,Willington,CT,41.8944,-72.2626
06280,Windham,CT,41.6963,-72.1389
06281,Woodstock,CT,41.9635,-72.0099
06282,Woodstock Valley,CT,41.9422,-72.0622
06320,New London,CT,41.3458,-72.1057
06330,Baltic,CT,41.6428,-72.0754
06331,Canterbury,CT,41.6975,-71.9884
06332,Central Village,CT,41.7322,-71.9057
06333,East Lyme,CT,41.3765,-72.2370
06334,Bozrah,CT,41.5472,-72.1775
06335,Gales Ferry,CT,41.4403,-72.0595
06336,Gilman,CT,41.5781,-72.1968
06338,Mashantucket,CT,41.4566,-71.9778
06339,Ledyard,CT,41.4425,-72.0001
06340,Groton,CT,41.3580,-72.0385
06350,Hanover,CT,41.6425,-72.0658
06351,Jewett City,CT,41.5783,-71.9518
06353,Montville,CT,41.4540,-72.1405
06354,Moosup,CT,41.7038,-71.8475
06355,Mystic,CT,41.3722,-71.9746
06357,Niantic,CT,41.3270,-72.2154
06359,North Stonington,CT,41.4684,-71.8796
06360,Norwich,CT,41.5491,-72.0914
06365,Preston,CT,41.5168,-71.9918
06370,Oakdale,CT,41.4654,-72.1919
06371,Old Lyme,CT,41.3592,-72.3412
06372,Old Mystic,CT,41.3944,-71.9410
06373,Oneco,CT,41.6695,-71.8055
06374,Plainfield,CT,41.6884,-71.9092
06375,Quaker Hill,CT,41.3989,-72.1314
06376,South Lyme,CT,41.2948,-72.2564
06377,Sterling,CT,41.7195,-71.8231
06378,Stonington,CT,41.3803,-71.9160
06379,Pawcatuck,CT,41.3682,-71.8631
06380,Taftville,CT,41.5628,-72.0546
06382,Uncasville,CT,41.4620,-72.1300
06383,Versailles,CT,41.6017,-72.0379
06384,Voluntown,CT,41.5777,-71.8358
06385,Waterford,CT,41.3586,-72.1601
06387,Wauregan,CT,41.7443,-71.9127
06388,West Mystic,CT,41.3544,-71.9669
06389,Yantic,CT,41.5612,-72.1252
06390,Fishers Island,NY,41.2709,-71.9802
06401,Ansonia,CT,41.3435,-73.0703
06403,Beacon Falls,CT,41.4365,-73.0588
06404,Botsford,CT,41.3667,-73.2577
06405,Branford,CT,41.2832,-72.7964
06408,Cheshire,CT,41.4989,-72.9011
06409,Centerbrook,CT,41.3489,-72.4132
06412,Chester,CT,41.4049,-72.4818
06413,Clinton,CT,41.2987,-72.5360
06414,Cobalt,CT,41.5636,-72.5568
06415,Colchester,CT,41.5468,-72.3429
06416,Cromwell,CT,41.6061,-72.6668
06417,Deep River,CT,41.3681,-72.4532
06418,Derby,CT,41.3269,-73.0819
06419,Killingworth,CT,41.3732,-72.5797
06420,Salem,CT,41.4858,-72.2698
06422,Durham,CT,41.4618,-72.6775
06423,East Haddam,CT,41.4759,-72.3918
06424,East Hampton,CT,41.5540,-72.4967
06426,Essex,CT,41.3491,-72.4022
06437,Guilford,CT,41.3386,-72.6895
06438,Haddam,CT,41.4605,-72.5044
06439,Hadlyme,CT,41.4216,-72.4194
06440,Hawleyville,CT,41.4276,-73.3558
06441,Higganum,CT,41.4630,-72.5827
06442,Ivoryton,CT,41.3479,-72.4461
06443,Madison,CT,41.3434,-72.6019
06444,Marion,CT,41.5625,-72.9343
06447,Marlborough,CT,41.6379,-72.4559
06450,Meriden,CT,41.5372,-72.7794
06455,Middlefield,CT,41.5157,-72.7131
06456,Middle Haddam,CT,41.5568,-72.5548
06457,Middletown,CT,41.5495,-72.6518
06460,Milford,CT,41.2110,-73.0519
06467,Milldale,CT,41.5655,-72.8922
06468,Monroe,CT,41.3422,-73.2316
06469,Moodus,CT,41.5109,-72.4433
06470,Newtown,CT,41.3954,-73.3184
06471,North Branford,CT,41.3387,-72.7809
06472,Northford,CT,41.3764,-72.7692
06473,North Haven,CT,41.3835,-72.8595
06474,North Westchester,CT,41.5805,-72.4017
06475,Old Saybrook,CT,41.3015,-72.3879
06477,Orange,CT,41.2795,-73.0334
06478,Oxford,CT,41.4286,-73.1425
06479,Plantsville,CT,41.5777,-72.9007
06480,Portland,CT,41.5984,-72.5891
06481,Rockfall,CT,41.5345,-72.6997
06482,Sandy Hook,CT,41.4050,-73.2493
06483,Seymour,CT,41.3836,-73.0946
06484,Shelton,CT,41.3157,-73.1350
06487,South Britain,CT,41.4705,-73.2517
06488,Southbury,CT,41.4674,-73.2354
06489,Southington,CT,41.6007,-72.8762
06491,Stevenson,CT,41.3833,-73.1850
06492,Wallingford,CT,41.4566,-72.8103
06497,Stratford,CT,41.19,-73.12
06498,Westbrook,CT,41.3085,-72.4653
06501,New Haven,CT,41.3083,-72.9287
06512,East Haven,CT,41.2835,-72.8663
06514,Hamden,CT,41.3712,-72.9397
06516,West Haven,CT,41.2732,-72.9596
06524,Bethany,CT,41.4266,-72.9944
06525,Woodbridge,CT,41.3529,-73.0019
06601,Bridgeport,CT,41.1667,-73.2054
06611,Trumbull,CT,41.2617,-73.2079
06612,Easton,CT,41.2767,-73.3057
06701,Waterbury,CT,41.5584,-73.0516
06712,Prospect,CT,41.4991,-72.9764
06716,Wolcott,CT,41.5989,-72.9775
06750,Bantam,CT,41.7227,-73.2576
06751,Bethlehem,CT,41.6374,-73.2095
06752,Bridgewater,CT,41.5167,-73.3578
06753,Cornwall,CT,41.8439,-73.3294
06754,Cornwall Bridge,CT,41.7871,-73.3575
06755,Gaylordsville,CT,41.6483,-73.4845
06756,Goshen,CT,41.8445,-73.2369
06757,Kent,CT,41.7427,-73.4483
06758,Lakeside,CT,41.6772,-73.2431
06759,Litchfield,CT,41.7556,-73.2184
06762,Middlebury,CT,41.5286,-73.1158
06763,Morris,CT,41.6903,-73.2084
06770,Naugatuck,CT,41.4879,-73.0529
06776,New Milford,CT,41.5873,-73.4158
06777,New Preston Marble Dale,CT,41.6923,-73.3342
06778,Northfield,CT,41.7073,-73.1048
06779,Oakville,CT,41.5954,-73.0802
06781,Pequabuck,CT,41.6729,-72.9939
06782,Plymouth,CT,41.6575,-73.0458
06783,Roxbury,CT,41.5533,-73.2996
06784,Sherman,CT,41.5922,-73.4912
06785,South Kent,CT,41.7006,-73.4593
06786,Terryville,CT,41.6643,-73.0260
06787,Thomaston,CT,41.6568,-73.0960
06790,Torrington,CT,41.8396,-73.1261
06791,Harwinton,CT,41.7530,-73.0599
06793,Washington,CT,41.6393,-73.2962
06794,Washington Depot,CT,41.6503,-73.3167
06795,Watertown,CT,41.6152,-73.1141
06796,West Cornwall,CT,41.8647,-73.3354
06798,Woodbury,CT,41.5618,-73.2059
06801,Bethel,CT,41.3818,-73.3930
06804,Brookfield,CT,41.4676,-73.3879
06807,Cos Cob,CT,41.0596,-73.5901
06810,Danbury,CT,41.3787,-73.4721
06812,New Fairfield,CT,41.4876,-73.4822
06820,Darien,CT,41.0760,-73.4816
06824,Fairfield,CT,41.1745,-73.2843
06829,Georgetown,CT,41.2557,-73.4353
06830,Greenwich,CT,41.0398,-73.6258
06838,Greens Farms,CT,41.1229,-73.3159
06840,New Canaan,CT,41.1624,-73.5021
06850,Norwalk,CT,41.1269,-73.4410
06870,Old Greenwich,CT,41.0332,-73.5700
06875,Redding Center,CT,41.3025,-73.3839
06876,Redding Ridge,CT,41.3136,-73.3505
06877,Ridgefield,CT,41.3074,-73.4946
06878,Riverside,CT,41.0360,-73.5822
06880,Westport,CT,41.1380,-73.3442
06883,Weston,CT,41.2226,-73.3767
06890,Southport,CT,41.1487,-73.2909
06896,Redding,CT,41.3022,-73.3880
06897,Wilton,CT,41.2094,-73.4417
06901,Stamford,CT,41.0550,-73.5387
07001,Avenel,NJ,40.5856,-74.2707
07002,Bayonne,NJ,40.6708,-74.1064
07003,Bloomfield,NJ,40.8085,-74.1880
07004,Fairfield,NJ,40.8766,-74.2976
07005,Boonton,NJ,40.9355,-74.4217
07006,Caldwell,NJ,40.8548,-74.2849
07008,Carteret,NJ,40.5816,-74.2327
07009,Cedar Grove,NJ,40.8572,-74.2281
07010,Cliffside Park,NJ,40.8204,-73.9877
07011,Clifton,NJ,40.8783,-74.1425
07016,Cranford,NJ,40.6563,-74.3040
07017,East Orange,NJ,40.7722,-74.2066
07020,Edgewater,NJ,40.8229,-73.9739
07021,Essex Fells,NJ,40.8237,-74.2797
07022,Fairview,NJ,40.8178,-74.0023
07023,Fanwood,NJ,40.6419,-74.3870
07024,Fort Lee,NJ,40.8485,-73.9697
07026,Garfield,NJ,40.8778,-74.1109
07027,Garwood,NJ,40.6502,-74.3231
07028,Glen Ridge,NJ,40.8081,-74.2048
07029,Harrison,NJ,40.7440,-74.1500
07030,Hoboken,NJ,40.7447,-74.0300
07031,North Arlington,NJ,40.7875,-74.1274
07032,Kearny,NJ,40.7518,-74.1198
07033,Kenilworth,NJ,40.6775,-74.2915
07034,Lake Hiawatha,NJ,40.8808,-74.3794
07035,Lincoln Park,NJ,40.9275,-74.3043
07036,Linden,NJ,40.6248,-74.2491
07039,Livingston,NJ,40.7876,-74.3300
07040,Maplewood,NJ,40.7369,-74.2680
07041,Millburn,NJ,40.7354,-74.3027
07042,Montclair,NJ,40.8120,-74.2160
07044,Verona,NJ,40.8335,-74.2408
07045,Montville,NJ,40.9144,-74.3670
07046,Mountain Lakes,NJ,40.8930,-74.4407
07047,North Bergen,NJ,40.7904,-74.0210
07050,Orange,NJ,40.7708,-74.2372
07052,West Orange,NJ,40.7914,-74.2630
07054,Parsippany,NJ,40.8542,-74.4045
07055,Passaic,NJ,40.8560,-74.1282
07057,Wallington,NJ,40.8526,-74.1083
07058,Pine Brook,NJ,40.8658,-74.3400
07059,Warren,NJ,40.6304,-74.5134
07060,Plainfield,NJ,40.6197,-74.4279
07064,Port Reading,NJ,40.5693,-74.2486
07065,Rahway,NJ,40.6087,-74.2804
07066,Clark,NJ,40.6219,-74.3169
07067,Colonia,NJ,40.5913,-74.3146
07068,Roseland,NJ,40.8232,-74.3055
07069,Watchung,NJ,40.6416,-74.4422
07070,Rutherford,NJ,40.8262,-74.1082
07071,Lyndhurst,NJ,40.7922,-74.1115
07072,Carlstadt,NJ,40.8281,-74.0666
07073,East Rutherford,NJ,40.8200,-74.0910
07074,Moonachie,NJ,40.8393,-74.0589
07075,Wood Ridge,NJ,40.8517,-74.0869
07076,Scotch Plains,NJ,40.6397,-74.3666
07077,Sewaren,NJ,40.5524,-74.2525
07078,Short Hills,NJ,40.7390,-74.3320
07079,South Orange,NJ,40.7489,-74.2586
07080,South Plainfield,NJ,40.5724,-74.4135
07081,Springfield,NJ,40.6990,-74.3291
07082,Towaco,NJ,40.9256,-74.3476
07083,Union,NJ,40.6935,-74.2672
07086,Weehawken,NJ,40.7687,-74.0169
07087,Union City,NJ,40.7667,-74.0303
07088,Vauxhall,NJ,40.7176,-74.2854
07090,Westfield,NJ,40.6532,-74.3461
07092,Mountainside,NJ,40.6819,-74.3594
07093,West New York,NJ,40.7865,-74.0078
07094,Secaucus,NJ,40.7783,-74.0645
07095,Woodbridge,NJ,40.5546,-74.2918
07097,Jersey City,NJ,40.7286,-74.0775
07101,Newark,NJ,40.7357,-74.1725
07109,Belleville,NJ,40.7921,-74.1624
07110,Nutley,NJ,40.8216,-74.1567
07111,Irvington,NJ,40.7259,-74.2322
07201,Elizabeth,NJ,40.6723,-74.1779
07203,Roselle,NJ,40.6504,-74.2597
07204,Roselle Park,NJ,40.6654,-74.2660
07205,Hillside,NJ,40.6929,-74.2306
07206,Elizabethport,NJ,40.6534,-74.1869
07401,Allendale,NJ,41.0333,-74.1335
07403,Bloomingdale,NJ,41.0334,-74.3316
07405,Butler,NJ,40.9880,-74.3798
07407,Elmwood Park,NJ,40.9057,-74.1179
07410,Fair Lawn,NJ,40.9363,-74.1195
07416,Franklin,NJ,41.1106,-74.5927
07417,Franklin Lakes,NJ,41.0123,-74.2080
07418,Glenwood,NJ,41.2429,-74.4940
07419,Hamburg,NJ,41.1530,-74.5718
07420,Haskell,NJ,41.0282,-74.3030
07421,Hewitt,NJ,41.1645,-74.3540
07422,Highland Lakes,NJ,41.1911,-74.4418
07423,Ho Ho Kus,NJ,40.9994,-74.0998
07424,Little Falls,NJ,40.8836,-74.2168
07428,Mc Afee,NJ,41.1812,-74.5184
07430,Mahwah,NJ,41.0780,-74.1764
07432,Midland Park,NJ,40.9949,-74.1424
07435,Newfoundland,NJ,41.0707,-74.4532
07436,Oakland,NJ,41.0281,-74.2372
07438,Oak Ridge,NJ,41.0376,-74.5178
07439,Ogdensburg,NJ,41.0789,-74.5962
07440,Pequannock,NJ,40.9473,-74.2955
07442,Pompton Lakes,NJ,41.0030,-74.2851
07444,Pompton Plains,NJ,40.9695,-74.3067
07446,Ramsey,NJ,41.0606,-74.1445
07450,Ridgewood,NJ,40.9815,-74.1110
07452,Glen Rock,NJ,40.9606,-74.1232
07456,Ringwood,NJ,41.1118,-74.2797
07457,Riverdale,NJ,40.9927,-74.3125
07458,Saddle River,NJ,41.0457,-74.0977
07460,Stockholm,NJ,41.1128,-74.4962
07461,Sussex,NJ,41.2484,-74.6011
07462,Vernon,NJ,41.1894,-74.4959
07463,Waldwick,NJ,41.0139,-74.1226
07465,Wanaque,NJ,41.0487,-74.2875
07470,Wayne,NJ,40.9484,-74.2424
07480,West Milford,NJ,41.0835,-74.3797
07481,Wyckoff,NJ,40.9985,-74.1651
07501,Paterson,NJ,40.9098,-74.1742
07506,Hawthorne,NJ,40.9588,-74.1565
07508,Haledon,NJ,40.9538,-74.1995
07511,Totowa,NJ,40.9169,-74.1723
07601,Hackensack,NJ,40.8861,-74.0463
07603,Bogota,NJ,40.8753,-74.0301
07604,Hasbrouck Heights,NJ,40.8626,-74.0743
07605,Leonia,NJ,40.8637,-73.9908
07606,South Hackensack,NJ,40.8646,-74.0489
07607,Maywood,NJ,40.9022,-74.0615
07608,Teterboro,NJ,40.8548,-74.0630
07620,Alpine,NJ,40.9596,-73.9188
07621,Bergenfield,NJ,40.9231,-73.9986
07624,Closter,NJ,40.9708,-73.9681
07626,Cresskill,NJ,40.9403,-73.9568
07627,Demarest,NJ,40.9543,-73.9562
07628,Dumont,NJ,40.9457,-73.9932
07630,Emerson,NJ,40.9746,-74.0287
07631,Englewood,NJ,40.8896,-73.9727
07632,Englewood Cliffs,NJ,40.8827,-73.9472
07640,Harrington Park,NJ,40.9905,-73.9808
07641,Haworth,NJ,40.9618,-74.0006
07642,Hillsdale,NJ,41.0069,-74.0483
07643,Little Ferry,NJ,40.8438,-74.0459
07644,Lodi,NJ,40.8783,-74.0819
07645,Montvale,NJ,41.0550,-74.0459
07646,New Milford,NJ,40.9326,-74.0185
07647,Northvale,NJ,41.0081,-73.9454
07648,Norwood,NJ,40.9938,-73.9484
07649,Oradell,NJ,40.9563,-74.0269
07650,Palisades Park,NJ,40.8461,-73.9956
07652,Paramus,NJ,40.9446,-74.0702
07656,Park Ridge,NJ,41.0353,-74.0440
07657,Ridgefield,NJ,40.8299,-74.0118
07660,Ridgefield Park,NJ,40.8538,-74.0200
07661,River Edge,NJ,40.9264,-74.0381
07662,Rochelle Park,NJ,40.9055,-74.0798
07663,Saddle Brook,NJ,40.9052,-74.0961
07666,Teaneck,NJ,40.8885,-74.0121
07670,Tenafly,NJ,40.9160,-73.9521
07675,Westwood,NJ,41.0099,-74.0071
07676,Township Of Washington,NJ,40.9887,-74.0632
07677,Woodcliff Lake,NJ,41.0299,-74.0554
07701,Red Bank,NJ,40.3567,-74.0751
07702,Shrewsbury,NJ,40.3267,-74.0569
07703,Fort Monmouth,NJ,40.3056,-74.0601
07704,Fair Haven,NJ,40.3594,-74.0367
07710,Adelphia,NJ,40.2183,-74.2569
07711,Allenhurst,NJ,40.2392,-74.0076
07712,Asbury Park,NJ,40.2467,-74.0490
07715,Belmar,NJ,40.1783,-74.0222
07716,Atlantic Highlands,NJ,40.3990,-74.0411
07717,Avon By The Sea,NJ,40.1914,-74.0167
07718,Belford,NJ,40.4206,-74.0842
07720,Bradley Beach,NJ,40.2019,-74.0121
07721,Cliffwood,NJ,40.4369,-74.2340
07722,Colts Neck,NJ,40.2860,-74.1628
07723,Deal,NJ,40.2506,-74.0024
07724,Eatontown,NJ,40.2926,-74.0734
07726,Englishtown,NJ,40.2769,-74.3624
07727,Farmingdale,NJ,40.2001,-74.1795
07728,Freehold,NJ,40.2302,-74.2954
07730,Hazlet,NJ,40.4238,-74.1743
07731,Howell,NJ,40.1522,-74.1850
07732,Highlands,NJ,40.4295,-73.9899
07733,Holmdel,NJ,40.3757,-74.1727
07734,Keansburg,NJ,40.4432,-74.1324
07735,Keyport,NJ,40.4395,-74.1967
07737,Leonardo,NJ,40.4112,-74.0614
07738,Lincroft,NJ,40.3415,-74.1241
07739,Little Silver,NJ,40.3366,-74.0385
07740,Long Branch,NJ,40.2943,-73.9935
07746,Marlboro,NJ,40.3135,-74.2572
07747,Matawan,NJ,40.4147,-74.2552
07748,Middletown,NJ,40.3966,-74.1079
07750,Monmouth Beach,NJ,40.3340,-73.9853
07751,Morganville,NJ,40.3595,-74.2618
07752,Navesink,NJ,40.3994,-74.0355
07753,Neptune,NJ,40.2169,-74.0742
07755,Oakhurst,NJ,40.2636,-74.0217
07756,Ocean Grove,NJ,40.2124,-74.0079
07757,Oceanport,NJ,40.3152,-74.0188
07758,Port Monmouth,NJ,40.4306,-74.1025
07760,Rumson,NJ,40.3709,-74.0086
07762,Spring Lake,NJ,40.1536,-74.0383
07763,Tennent,NJ,40.2797,-74.3349
07764,West Long Branch,NJ,40.2894,-74.0192
07765,Wickatunk,NJ,40.3502,-74.2483
07801,Dover,NJ,40.9343,-74.5418
07803,Mine Hill,NJ,40.8801,-74.6007
07806,Picatinny Arsenal,NJ,40.8866,-74.5807
07820,Allamuchy,NJ,40.9219,-74.8106
07821,Andover,NJ,40.9620,-74.7554
07822,Augusta,NJ,41.1402,-74.6973
07823,Belvidere,NJ,40.8279,-75.0320
07825,Blairstown,NJ,40.9680,-74.9557
07826,Branchville,NJ,41.1924,-74.7582
07827,Montague,NJ,41.2887,-74.7582
07828,Budd Lake,NJ,40.8789,-74.7562
07829,Buttzville,NJ,40.8324,-75.0068
07830,Califon,NJ,40.7153,-74.8025
07831,Changewater,NJ,40.7383,-74.9447
07832,Columbia,NJ,41.0278,-74.9928
07833,Delaware,NJ,40.8994,-75.0715
07834,Denville,NJ,40.8832,-74.4905
07836,Flanders,NJ,40.8521,-74.7010
07837,Glasser,NJ,40.9901,-74.6205
07838,Great Meadows,NJ,40.8843,-74.9198
07839,Greendell,NJ,40.9737,-74.8217
07840,Hackettstown,NJ,40.8650,-74.8227
07842,Hibernia,NJ,40.9405,-74.5167
07843,Hopatcong,NJ,40.9414,-74.6649
07844,Hope,NJ,40.9112,-74.9679
07845,Ironia,NJ,40.8225,-74.6264
07846,Johnsonburg,NJ,40.9675,-74.8813
07847,Kenvil,NJ,40.8860,-74.6230
07848,Lafayette,NJ,41.1054,-74.6794
07849,Lake Hopatcong,NJ,40.9743,-74.5823
07850,Landing,NJ,40.9069,-74.6653
07851,Layton,NJ,41.2031,-74.8415
07852,Ledgewood,NJ,40.8820,-74.6623
07853,Long Valley,NJ,40.7831,-74.8037
07855,Middleville,NJ,41.0555,-74.8633
07856,Mount Arlington,NJ,40.9174,-74.6385
07857,Netcong,NJ,40.8964,-74.6981
07860,Newton,NJ,41.0644,-74.8034
07863,Oxford,NJ,40.8176,-74.9655
07865,Port Murray,NJ,40.7869,-74.9011
07866,Rockaway,NJ,40.9577,-74.4919
07869,Randolph,NJ,40.8421,-74.5823
07870,Schooleys Mountain,NJ,40.7994,-74.8142
07871,Sparta,NJ,41.0542,-74.6128
07874,Stanhope,NJ,40.9285,-74.7199
07875,Stillwater,NJ,41.0359,-74.8787
07876,Succasunna,NJ,40.8567,-74.6532
07877,Swartswood,NJ,41.0868,-74.8276
07878,Mount Tabor,NJ,40.8709,-74.4793
07879,Tranquility,NJ,40.9564,-74.8086
07880,Vienna,NJ,40.8688,-74.8896
07881,Wallpack Center,NJ,41.1254,-74.9101
07882,Washington,NJ,40.7580,-75.0161
07885,Wharton,NJ,40.9375,-74.5809
07901,Summit,NJ,40.7123,-74.3617
07920,Basking Ridge,NJ,40.6761,-74.5634
07921,Bedminster,NJ,40.6560,-74.6855
07922,Berkeley Heights,NJ,40.6756,-74.4202
07924,Bernardsville,NJ,40.7262,-74.5921
07926,Brookside,NJ,40.7945,-74.5685
07927,Cedar Knolls,NJ,40.8223,-74.4563
07928,Chatham,NJ,40.7220,-74.4037
07930,Chester,NJ,40.7847,-74.6824
07931,Far Hills,NJ,40.7145,-74.6574
07932,Florham Park,NJ,40.7746,-74.4010
07933,Gillette,NJ,40.6983,-74.4738
07934,Gladstone,NJ,40.7155,-74.6854
07935,Green Village,NJ,40.7359,-74.4513
07936,East Hanover,NJ,40.8203,-74.3680
07938,Liberty Corner,NJ,40.6644,-74.5775
07939,Lyons,NJ,40.7061,-74.5494
07940,Madison,NJ,40.7583,-74.4201
07945,Mendham,NJ,40.7870,-74.5939
07946,Millington,NJ,40.6791,-74.5051
07950,Morris Plains,NJ,40.8445,-74.4904
07960,Morristown,NJ,40.7818,-74.4947
07961,Convent Station,NJ,40.7782,-74.4415
07970,Mount Freedom,NJ,40.8110,-74.5753
07974,New Providence,NJ,40.6979,-74.4040
07976,New Vernon,NJ,40.7339,-74.4785
07977,Peapack,NJ,40.7104,-74.6509
07978,Pluckemin,NJ,40.6457,-74.6396
07979,Pottersville,NJ,40.7049,-74.7271
07980,Stirling,NJ,40.6818,-74.4919
07981,Whippany,NJ,40.8234,-74.4222
08001,Alloway,NJ,39.5566,-75.3602
08002,Cherry Hill,NJ,39.9288,-75.0243
08004,Atco,NJ,39.7744,-74.8376
08005,Barnegat,NJ,39.8022,-74.2991
08006,Barnegat Light,NJ,39.7534,-74.1086
08007,Barrington,NJ,39.8640,-75.0537
08008,Beach Haven,NJ,39.6379,-74.1989
08009,Berlin,NJ,39.7567,-74.9256
08010,Beverly,NJ,40.0486,-74.9164
08011,Birmingham,NJ,39.9752,-74.7144
08012,Blackwood,NJ,39.7854,-75.0500
08014,Bridgeport,NJ,39.8079,-75.3562
08015,Browns Mills,NJ,39.9418,-74.5501
08016,Burlington,NJ,40.0747,-74.8342
08018,Cedar Brook,NJ,39.7154,-74.9011
08019,Chatsworth,NJ,39.7600,-74.4942
08020,Clarksboro,NJ,39.7993,-75.2197
08021,Clementon,NJ,39.8048,-75.0060
08022,Columbus,NJ,40.0594,-74.6961
08023,Deepwater,NJ,39.6893,-75.4860
08025,Ewan,NJ,39.6987,-75.1864
08026,Gibbsboro,NJ,39.8323,-74.9665
08027,Gibbstown,NJ,39.8247,-75.2924
08028,Glassboro,NJ,39.6984,-75.1308
08029,Glendora,NJ,39.8419,-75.0682
08030,Gloucester City,NJ,39.8906,-75.1186
08031,Bellmawr,NJ,39.8658,-75.0923
08032,Grenloch,NJ,39.7801,-75.0603
08033,Haddonfield,NJ,39.8952,-75.0408
08035,Haddon Heights,NJ,39.8796,-75.0658
08036,Hainesport,NJ,39.9722,-74.8338
08037,Hammonton,NJ,39.6233,-74.7626
08038,Hancocks Bridge,NJ,39.4634,-75.4957
08039,Harrisonville,NJ,39.6799,-75.2677
08041,Jobstown,NJ,40.0368,-74.6859
08042,Juliustown,NJ,40.0160,-74.6634
08043,Voorhees,NJ,39.8419,-74.9633
08045,Lawnside,NJ,39.8686,-75.0301
08046,Willingboro,NJ,40.0274,-74.8866
08048,Lumberton,NJ,39.9604,-74.8077
08049,Magnolia,NJ,39.8536,-75.0345
08050,Manahawkin,NJ,39.7043,-74.2637
08051,Mantua,NJ,39.7868,-75.1839
08052,Maple Shade,NJ,39.9499,-74.9930
08053,Marlton,NJ,39.8506,-74.9081
08054,Mount Laurel,NJ,39.9570,-74.9162
08055,Medford,NJ,39.8640,-74.8119
08056,Mickleton,NJ,39.7878,-75.2514
08057,Moorestown,NJ,39.9764,-74.9431
08059,Mount Ephraim,NJ,39.8868,-75.0933
08060,Mount Holly,NJ,40.0147,-74.7897
08061,Mount Royal,NJ,39.8039,-75.2020
08062,Mullica Hill,NJ,39.7125,-75.2131
08063,National Park,NJ,39.8687,-75.1844
08064,New Lisbon,NJ,39.9616,-74.6407
08065,Palmyra,NJ,40.0034,-75.0354
08066,Paulsboro,NJ,39.8343,-75.2180
08067,Pedricktown,NJ,39.7346,-75.4131
08068,Pemberton,NJ,39.9568,-74.6534
08069,Penns Grove,NJ,39.7065,-75.4497
08070,Pennsville,NJ,39.6315,-75.5051
08071,Pitman,NJ,39.7333,-75.1351
08072,Quinton,NJ,39.5452,-75.4156
08073,Rancocas,NJ,40.0102,-74.8630
08074,Richwood,NJ,39.7171,-75.1735
08075,Riverside,NJ,40.0301,-74.9476
08076,Riverton,NJ,40.0122,-75.0154
08078,Runnemede,NJ,39.8519,-75.0738
08079,Salem,NJ,39.5319,-75.4463
08080,Sewell,NJ,39.7628,-75.1210
08081,Sicklerville,NJ,39.7330,-74.9695
08083,Somerdale,NJ,39.8426,-75.0297
08084,Stratford,NJ,39.8302,-75.0161
08085,Swedesboro,NJ,39.7618,-75.3541
08086,Thorofare,NJ,39.8404,-75.1949
08087,Tuckerton,NJ,39.6215,-74.3863
08088,Vincentown,NJ,39.8116,-74.6125
08089,Waterford Works,NJ,39.7233,-74.8190
08090,Wenonah,NJ,39.7969,-75.1500
08091,West Berlin,NJ,39.8049,-74.9299
08092,West Creek,NJ,39.6606,-74.2877
08093,Westville,NJ,39.8629,-75.1487
08094,Williamstown,NJ,39.6397,-74.9731
08095,Winslow,NJ,39.6570,-74.8627
08096,West Deptford,NJ,39.8233,-75.1302
08097,Woodbury Heights,NJ,39.8148,-75.1510
08098,Woodstown,NJ,39.6338,-75.3257
08101,Camden,NJ,39.9258,-75.1200
08106,Audubon,NJ,39.8915,-75.0729
08107,Oaklyn,NJ,39.9082,-75.0836
08108,Collingswood,NJ,39.9138,-75.0638
08109,Merchantville,NJ,39.9501,-75.0611
08110,Pennsauken,NJ,39.9652,-75.0670
08201,Absecon,NJ,39.4178,-74.5030
08202,Avalon,NJ,39.0899,-74.7307
08203,Brigantine,NJ,39.4075,-74.3765
08204,Cape May,NJ,38.9858,-74.9062
08210,Cape May Court House,NJ,39.1115,-74.8179
08212,Cape May Point,NJ,38.9369,-74.9658
08213,Cologne,NJ,39.5015,-74.6063
08214,Dennisville,NJ,39.1932,-74.8256
08215,Egg Harbor City,NJ,39.5712,-74.5894
08217,Elwood,NJ,39.5765,-74.7196
08218,Goshen,NJ,39.1517,-74.8710
08219,Green Creek,NJ,39.0461,-74.9014
08220,Leeds Point,NJ,39.4917,-74.4295
08221,Linwood,NJ,39.3418,-74.5677
08223,Marmora,NJ,39.2651,-74.6610
08224,New Gretna,NJ,39.5942,-74.4593
08225,Northfield,NJ,39.3569,-74.5381
08226,Ocean City,NJ,39.2536,-74.6029
08230,Ocean View,NJ,39.2059,-74.7105
08231,Oceanville,NJ,39.4713,-74.4606
08232,Pleasantville,NJ,39.3947,-74.5179
08234,Egg Harbor Township,NJ,39.3870,-74.6240
08240,Pomona,NJ,39.4704,-74.5793
08241,Port Republic,NJ,39.5285,-74.4644
08242,Rio Grande,NJ,39.0172,-74.8706
08243,Sea Isle City,NJ,39.1515,-74.6934
08244,Somers Point,NJ,39.3157,-74.5950
08245,South Dennis,NJ,39.1776,-74.8158
08246,South Seaville,NJ,39.1789,-74.7605
08247,Stone Harbor,NJ,39.0454,-74.7676
08248,Strathmere,NJ,39.1946,-74.6616
08250,Tuckahoe,NJ,39.2898,-74.7405
08251,Villas,NJ,39.0281,-74.9279
08252,Whitesboro,NJ,39.0384,-74.8577
08260,Wildwood,NJ,38.9857,-74.8294
08270,Woodbine,NJ,39.2836,-74.7872
08302,Bridgeton,NJ,39.4272,-75.2575
08310,Buena,NJ,39.5289,-74.9027
08311,Cedarville,NJ,39.3224,-75.1894
08312,Clayton,NJ,39.6625,-75.0816
08313,Deerfield Street,NJ,39.5293,-75.2267
08314,Delmont,NJ,39.2155,-74.9509
08315,Dividing Creek,NJ,39.2743,-75.1114
08316,Dorchester,NJ,39.2737,-74.9720
08317,Dorothy,NJ,39.4015,-74.8028
08318,Elmer,NJ,39.5446,-75.2027
08319,Estell Manor,NJ,39.3523,-74.8120
08320,Fairton,NJ,39.3818,-75.2206
08321,Fortescue,NJ,39.2330,-75.1700
08322,Franklinville,NJ,39.6183,-75.0377
08323,Greenwich,NJ,39.3908,-75.3649
08324,Heislerville,NJ,39.2429,-74.9859
08326,Landisville,NJ,39.5353,-74.9313
08327,Leesburg,NJ,39.2435,-74.9937
08328,Malaga,NJ,39.5796,-75.0589
08329,Mauricetown,NJ,39.2759,-75.0064
08330,Mays Landing,NJ,39.4702,-74.7297
08332,Millville,NJ,39.3306,-75.0228
08340,Milmay,NJ,39.4314,-74.8709
08341,Minotola,NJ,39.5202,-74.9564
08342,Mizpah,NJ,39.4914,-74.8328
08343,Monroeville,NJ,39.6446,-75.1759
08344,Newfield,NJ,39.5690,-75.0193
08345,Newport,NJ,39.2493,-75.1694
08346,Newtonville,NJ,39.5679,-74.8579
08347,Norma,NJ,39.4963,-75.0886
08348,Port Elizabeth,NJ,39.3221,-74.9713
08349,Port Norris,NJ,39.2632,-75.0660
08350,Richland,NJ,39.4904,-74.8797
08352,Rosenhayn,NJ,39.4739,-75.1300
08353,Shiloh,NJ,39.4617,-75.2970
08360,Vineland,NJ,39.4857,-74.9728
08401,Atlantic City,NJ,39.3716,-74.4520
08402,Margate City,NJ,39.3303,-74.5062
08403,Longport,NJ,39.3152,-74.5372
08406,Ventnor City,NJ,39.3437,-74.4831
08501,Allentown,NJ,40.1397,-74.5484
08502,Belle Mead,NJ,40.4416,-74.6554
08504,Blawenburg,NJ,40.4076,-74.7032
08505,Bordentown,NJ,40.0929,-74.7414
08510,Millstone Township,NJ,40.1886,-74.4321
08511,Cookstown,NJ,40.0235,-74.5535
08512,Cranbury,NJ,40.3247,-74.5332
08514,Cream Ridge,NJ,40.1300,-74.4940
08515,Chesterfield,NJ,40.1351,-74.6531
08518,Florence,NJ,40.1161,-74.8074
08520,Hightstown,NJ,40.2491,-74.5151
08525,Hopewell,NJ,40.4091,-74.7858
08526,Imlaystown,NJ,40.1665,-74.5138
08527,Jackson,NJ,40.1023,-74.3549
08528,Kingston,NJ,40.3871,-74.6210
08530,Lambertville,NJ,40.3639,-74.8961
08533,New Egypt,NJ,40.0819,-74.4964
08534,Pennington,NJ,40.3282,-74.7956
08536,Plainsboro,NJ,40.3375,-74.5876
08540,Princeton,NJ,40.3782,-74.6622
08550,Princeton Junction,NJ,40.2826,-74.6205
08551,Ringoes,NJ,40.4408,-74.8367
08553,Rocky Hill,NJ,40.4005,-74.6395
08554,Roebling,NJ,40.1148,-74.7804
08555,Roosevelt,NJ,40.2133,-74.4718
08556,Rosemont,NJ,40.4337,-75.0009
08557,Sergeantsville,NJ,40.4458,-74.9437
08558,Skillman,NJ,40.4085,-74.6947
08559,Stockton,NJ,40.4394,-74.9717
08560,Titusville,NJ,40.3123,-74.8579
08561,Windsor,NJ,40.2503,-74.5826
08562,Wrightstown,NJ,40.0648,-74.6032
08601,Trenton,NJ,40.2167,-74.7433
08640,Fort Dix,NJ,40.0104,-74.6148
08648,Lawrence Township,NJ,40.2799,-74.7135
08701,Lakewood,NJ,40.0721,-74.2050
08720,Allenwood,NJ,40.1433,-74.1033
08721,Bayville,NJ,39.9044,-74.2114
08722,Beachwood,NJ,39.9284,-74.2016
08723,Brick,NJ,40.0458,-74.1092
08730,Brielle,NJ,40.1050,-74.0646
08731,Forked River,NJ,39.8578,-74.2665
08732,Island Heights,NJ,39.9411,-74.1418
08733,Lakehurst,NJ,40.0105,-74.4139
08734,Lanoka Harbor,NJ,39.8647,-74.1715
08735,Lavallette,NJ,39.9809,-74.0717
08736,Manasquan,NJ,40.1196,-74.0687
08738,Mantoloking,NJ,40.0247,-74.0584
08739,Normandy Beach,NJ,40.0025,-74.0609
08740,Ocean Gate,NJ,39.9267,-74.1355
08741,Pine Beach,NJ,39.9334,-74.1670
08742,Point Pleasant Beach,NJ,40.0817,-74.0633
08750,Sea Girt,NJ,40.1309,-74.0459
08751,Seaside Heights,NJ,39.9493,-74.0818
08752,Seaside Park,NJ,39.9082,-74.0865
08753,Toms River,NJ,39.9858,-74.1595
08758,Waretown,NJ,39.8016,-74.2575
08759,Manchester Township,NJ,39.9553,-74.3646
08801,Annandale,NJ,40.6331,-74.8917
08802,Asbury,NJ,40.6795,-75.0321
08803,Baptistown,NJ,40.5217,-75.0066
08804,Bloomsbury,NJ,40.6436,-75.0974
08805,Bound Brook,NJ,40.5714,-74.5374
08807,Bridgewater,NJ,40.5928,-74.6163
08808,Broadway,NJ,40.7318,-75.0516
08809,Clinton,NJ,40.6563,-74.9262
08810,Dayton,NJ,40.3720,-74.4974
08812,Dunellen,NJ,40.5998,-74.4843
08816,East Brunswick,NJ,40.4366,-74.4168
08817,Edison,NJ,40.5192,-74.3968
08821,Flagtown,NJ,40.5206,-74.6820
08822,Flemington,NJ,40.5184,-74.8681
08823,Franklin Park,NJ,40.4384,-74.5671
08824,Kendall Park,NJ,40.4178,-74.5510
08825,Frenchtown,NJ,40.5083,-75.0142
08826,Glen Gardner,NJ,40.7186,-74.9059
08827,Hampton,NJ,40.6729,-74.9751
08828,Helmetta,NJ,40.3780,-74.4242
08829,High Bridge,NJ,40.6699,-74.8949
08830,Iselin,NJ,40.5693,-74.3150
08831,Monroe Township,NJ,40.3312,-74.4170
08832,Keasbey,NJ,40.5088,-74.3095
08833,Lebanon,NJ,40.6435,-74.8200
08834,Little York,NJ,40.6111,-75.0764
08835,Manville,NJ,40.5420,-74.5884
08836,Martinsville,NJ,40.6009,-74.5541
08840,Metuchen,NJ,40.5434,-74.3492
08844,Hillsborough,NJ,40.4990,-74.6847
08846,Middlesex,NJ,40.5740,-74.4984
08848,Milford,NJ,40.5854,-75.1024
08850,Milltown,NJ,40.4498,-74.4449
08852,Monmouth Junction,NJ,40.3946,-74.5486
08853,Neshanic Station,NJ,40.5291,-74.7404
08854,Piscataway,NJ,40.5518,-74.4647
08857,Old Bridge,NJ,40.3910,-74.3256
08858,Oldwick,NJ,40.6800,-74.7355
08859,Parlin,NJ,40.4577,-74.3024
08861,Perth Amboy,NJ,40.5215,-74.2758
08863,Fords,NJ,40.5387,-74.3129
08865,Phillipsburg,NJ,40.6912,-75.1320
08867,Pittstown,NJ,40.5713,-74.9723
08868,Quakertown,NJ,40.5658,-74.9418
08869,Raritan,NJ,40.5702,-74.6387
08870,Readington,NJ,40.5688,-74.7383
08871,Sayreville,NJ,40.4595,-74.3616
08873,Somerset,NJ,40.4989,-74.5251
08876,Somerville,NJ,40.5861,-74.6647
08879,South Amboy,NJ,40.4674,-74.2758
08880,South Bound Brook,NJ,40.5524,-74.5300
08882,South River,NJ,40.4467,-74.3787
08884,Spotswood,NJ,40.3942,-74.3900
08885,Stanton,NJ,40.5751,-74.8382
08886,Stewartsville,NJ,40.6936,-75.1103
08887,Three Bridges,NJ,40.5274,-74.7856
08888,Whitehouse,NJ,40.6184,-74.7444
08889,Whitehouse Station,NJ,40.6084,-74.7681
08890,Zarephath,NJ,40.5366,-74.5752
08901,New Brunswick,NJ,40.4878,-74.4411
08902,North Brunswick,NJ,40.4392,-74.4821
08904,Highland Park,NJ,40.5019,-74.4289
09001,Apo,AE,0,0
09160,Dpo,AE,0.0000,0.0000
09204,Fpo,AE,0.0000,0.0000
10001,New York,NY,40.7508,-73.9961
10301,Staten Island,NY,40.6247,-74.0945
10451,Bronx,NY,40.8190,-73.9204
10501,Amawalk,NY,41.2952,-73.7576
10502,Ardsley,NY,41.0099,-73.8405
10503,Ardsley On Hudson,NY,41.0255,-73.8751
10504,Armonk,NY,41.1247,-73.7086
10505,Baldwin Place,NY,41.3420,-73.7443
10506,Bedford,NY,41.1876,-73.6348
10507,Bedford Hills,NY,41.2274,-73.6918
10509,Brewster,NY,41.4186,-73.5970
10510,Briarcliff Manor,NY,41.1428,-73.8412
10511,Buchanan,NY,41.2631,-73.9488
10512,Carmel,NY,41.4313,-73.7256
10514,Chappaqua,NY,41.1738,-73.7714
10516,Cold Spring,NY,41.4471,-73.9092
10517,Crompond,NY,41.2976,-73.8672
10518,Cross River,NY,41.2790,-73.5981
10519,Croton Falls,NY,41.3405,-73.6637
10520,Croton On Hudson,NY,41.2092,-73.8788
10522,Dobbs Ferry,NY,41.0116,-73.8693
10523,Elmsford,NY,41.0602,-73.8196
10524,Garrison,NY,41.3780,-73.9252
10526,Goldens Bridge,NY,41.2922,-73.6473
10527,Granite Springs,NY,41.3199,-73.7606
10528,Harrison,NY,40.9794,-73.7207
10530,Hartsdale,NY,41.0183,-73.8124
10532,Hawthorne,NY,41.0952,-73.8069
10533,Irvington,NY,41.0406,-73.8594
10535,Jefferson Valley,NY,41.3357,-73.7997
10536,Katonah,NY,41.2675,-73.6895
10537,Lake Peekskill,NY,41.3367,-73.8840
10538,Larchmont,NY,40.9341,-73.7547
10540,Lincolndale,NY,41.3293,-73.7275
10541,Mahopac,NY,41.3745,-73.7521
10542,Mahopac Falls,NY,41.3716,-73.7622
10543,Mamaroneck,NY,40.9513,-73.7368
10545,Maryknoll,NY,41.1605,-73.8672
10546,Millwood,NY,41.1958,-73.7963
10547,Mohegan Lake,NY,41.3127,-73.8505
10548,Montrose,NY,41.2428,-73.9448
10549,Mount Kisco,NY,41.1999,-73.7180
10550,Mount Vernon,NY,40.9060,-73.8344
10560,North Salem,NY,41.3341,-73.6116
10562,Ossining,NY,41.1886,-73.8375
10566,Peekskill,NY,41.2847,-73.9232
10567,Cortlandt Manor,NY,41.2849,-73.9091
10570,Pleasantville,NY,41.1255,-73.7924
10573,Port Chester,NY,41.0232,-73.6781
10576,Pound Ridge,NY,41.2085,-73.5679
10577,Purchase,NY,41.0374,-73.7170
10578,Purdys,NY,41.3160,-73.6756
10579,Putnam Valley,NY,41.4005,-73.8215
10580,Rye,NY,40.9767,-73.6911
10583,Scarsdale,NY,40.9894,-73.7946
10587,Shenorock,NY,41.3201,-73.7371
10588,Shrub Oak,NY,41.3288,-73.8230
10589,Somers,NY,41.3120,-73.6885
10590,South Salem,NY,41.2519,-73.5397
10591,Tarrytown,NY,41.0829,-73.8500
10594,Thornwood,NY,41.1148,-73.7709
10595,Valhalla,NY,41.0889,-73.7844
10596,Verplanck,NY,41.2528,-73.9606
10597,Waccabuc,NY,41.2935,-73.5953
10598,Yorktown Heights,NY,41.2857,-73.7915
10601,White Plains,NY,41.0315,-73.7644
10604,West Harrison,NY,41.0517,-73.7304
10701,Yonkers,NY,40.9526,-73.8829
10706,Hastings On Hudson,NY,40.9900,-73.8696
10707,Tuckahoe,NY,40.9624,-73.8235
10708,Bronxville,NY,40.9384,-73.8287
10709,Eastchester,NY,40.9556,-73.8082
10801,New Rochelle,NY,40.9157,-73.7829
10803,Pelham,NY,40.9045,-73.8059
10901,Suffern,NY,41.1385,-74.1061
10910,Arden,NY,41.2746,-74.1536
10911,Bear Mountain,NY,41.3064,-74.0009
10912,Bellvale,NY,41.2506,-74.3113
10913,Blauvelt,NY,41.0691,-73.9599
10914,Blooming Grove,NY,41.4121,-74.1914
10915,Bullville,NY,41.5443,-74.3618
10916,Campbell Hall,NY,41.4475,-74.2582
10917,Central Valley,NY,41.3298,-74.1130
10918,Chester,NY,41.3502,-74.2578
10919,Circleville,NY,41.5221,-74.3788
10920,Congers,NY,41.1581,-73.9275
10921,Florida,NY,41.3163,-74.3634
10922,Fort Montgomery,NY,41.3335,-73.9942
10923,Garnerville,NY,41.2044,-74.0031
10924,Goshen,NY,41.3781,-74.3619
10925,Greenwood Lake,NY,41.2081,-74.3053
10926,Harriman,NY,41.3015,-74.1494
10927,Haverstraw,NY,41.1926,-73.9559
10928,Highland Falls,NY,41.3246,-74.0485
10930,Highland Mills,NY,41.3632,-74.0967
10931,Hillburn,NY,41.1247,-74.1698
10932,Howells,NY,41.4797,-74.4659
10933,Johnson,NY,41.3663,-74.5067
10940,Middletown,NY,41.4593,-74.4793
10949,Monroe,NY,41.3300,-74.1900
10952,Monsey,NY,41.1179,-74.0821
10953,Mountainville,NY,41.4009,-74.0789
10954,Nanuet,NY,41.0956,-74.0111
10956,New City,NY,41.1555,-73.9908
10958,New Hampton,NY,41.3735,-74.4318
10959,New Milford,NY,41.2345,-74.4144
10960,Nyack,NY,41.0856,-73.9182
10962,Orangeburg,NY,41.0524,-73.9624
10963,Otisville,NY,41.4645,-74.5401
10964,Palisades,NY,41.0118,-73.9205
10965,Pearl River,NY,41.0617,-74.0126
10968,Piermont,NY,41.0409,-73.9126
10969,Pine Island,NY,41.2906,-74.4878
10970,Pomona,NY,41.1914,-74.0831
10973,Slate Hill,NY,41.3852,-74.4745
10974,Sloatsburg,NY,41.1596,-74.1539
10975,Southfields,NY,41.2377,-74.1328
10976,Sparkill,NY,41.0212,-73.9123
10977,Spring Valley,NY,41.1156,-74.0476
10979,Sterling Forest,NY,41.1828,-74.3192
10980,Stony Point,NY,41.2473,-74.0360
10981,Sugar Loaf,NY,41.3208,-74.2859
10982,Tallman,NY,41.1111,-74.1003
10983,Tappan,NY,41.0263,-73.9494
10984,Thiells,NY,41.2083,-74.0165
10985,Thompson Ridge,NY,41.5796,-74.3589
10986,Tomkins Cove,NY,41.2801,-73.9883
10987,Tuxedo Park,NY,41.2081,-74.2451
10988,Unionville,NY,41.3016,-74.5617
10989,Valley Cottage,NY,41.1222,-73.9290
10990,Warwick,NY,41.2563,-74.3677
10992,Washingtonville,NY,41.4295,-74.1686
10993,West Haverstraw,NY,41.2116,-73.9656
10994,West Nyack,NY,41.0987,-73.9708
10996,West Point,NY,41.3940,-73.9723
10998,Westtown,NY,41.3271,-74.5469
11001,Floral Park,NY,40.7237,-73.7075
11003,Elmont,NY,40.6987,-73.7054
11004,Glen Oaks,NY,40.7467,-73.7120
11010,Franklin Square,NY,40.7003,-73.6740
11020,Great Neck,NY,40.7719,-73.7125
11030,Manhasset,NY,40.7942,-73.6866
11040,New Hyde Park,NY,40.7452,-73.6811
11050,Port Washington,NY,40.8371,-73.6940
11096,Inwood,NY,40.6203,-73.7540
11101,Long Island City,NY,40.7456,-73.9360
11102,Astoria,NY,40.7708,-73.9261
11104,Sunnyside,NY,40.7435,-73.9186
11201,Brooklyn,NY,40.6946,-73.9906
11351,Flushing,NY,40.7553,-73.8268
11356,College Point,NY,40.7843,-73.8425
11357,Whitestone,NY,40.7872,-73.8112
11359,Bayside,NY,40.7918,-73.7765
11362,Little Neck,NY,40.7575,-73.7351
11364,Oakland Gardens,NY,40.7470,-73.7573
11365,Fresh Meadows,NY,40.7395,-73.7940
11368,Corona,NY,40.7523,-73.8535
11369,East Elmhurst,NY,40.7639,-73.8712
11372,Jackson Heights,NY,40.7517,-73.8830
11373,Elmhurst,NY,40.7383,-73.8779
11374,Rego Park,NY,40.7241,-73.8625
11375,Forest Hills,NY,40.7231,-73.8422
11377,Woodside,NY,40.7480,-73.9064
11378,Maspeth,NY,40.7240,-73.9085
11379,Middle Village,NY,40.7185,-73.8805
11385,Ridgewood,NY,40.6982,-73.8804
11405,Jamaica,NY,40.6917,-73.8061
11411,Cambria Heights,NY,40.6947,-73.7373
11412,Saint Albans,NY,40.6965,-73.7625
11413,Springfield Gardens,NY,40.6654,-73.7497
11414,Howard Beach,NY,40.6596,-73.8450
11415,Kew Gardens,NY,40.7081,-73.8303
11416,Ozone Park,NY,40.6853,-73.8503
11418,Richmond Hill,NY,40.6996,-73.8315
11419,South Richmond Hill,NY,40.6884,-73.8228
11420,South Ozone Park,NY,40.6747,-73.8192
11421,Woodhaven,NY,40.6929,-73.8568
11422,Rosedale,NY,40.6598,-73.7381
11423,Hollis,NY,40.7185,-73.7671
11426,Bellerose,NY,40.7389,-73.7260
11427,Queens Village,NY,40.7286,-73.7504
11501,Mineola,NY,40.7458,-73.6394
11507,Albertson,NY,40.7703,-73.6506
11509,Atlantic Beach,NY,40.5876,-73.7303
11510,Baldwin,NY,40.6538,-73.6085
11514,Carle Place,NY,40.7503,-73.6125
11516,Cedarhurst,NY,40.6284,-73.7260
11518,East Rockaway,NY,40.6376,-73.6680
11520,Freeport,NY,40.6522,-73.5828
